,City,HouseName,Lng,Lat,District,id,TotalPrice,Price,Floor,Square,FloorType,BuildingType,BuildingStructure,RenovationCondition,Elevator,ConstructionTime,BedRooms,LivingRooms,Kitchens,BathRooms
0,beijing,富力又一城B区,116.56893517753639,39.85275396508811,朝阳,101112779955,7950000.0,50579,High,157.18,Flat,Plate,Steel/Concrete,Hardcover,Yes,2008,3,2,1,2
1,beijing,白广路7号院,116.36368925665002,39.89035320741727,西城,101112823905,6350000.0,109805,Low,57.83,Flat,Plate,Mixed,Other,No,1984,2,1,1,1
2,beijing,莱茵河畔,116.47969750817518,39.80339725076028,亦庄开发区,101112557404,5850000.0,54072,Low,108.19,Flat,Plate,Steel/Concrete,Hardcover,Yes,2003,2,1,1,1
3,beijing,瑞海家园五区,116.34336617245337,39.78917167385806,大兴,101112573961,5090000.0,46379,First Floor ,109.75,Flat,Plate,Mixed,Hardcover,No,2004,3,1,1,1
4,beijing,合生世界村,116.55298001405147,39.74307440176669,通州,101111602994,2730000.0,30063,Middle,90.81,Flat,Plate,Steel/Concrete,Hardcover,Yes,2011,2,1,1,1
5,beijing,三环新城8号院,116.3140815924892,39.855146972902574,丰台,101107918650,6400000.0,62574,Middle,102.28,Flat,Plate & Tower,Steel/Concrete,Hardcover,Yes,2007,2,1,1,2
6,beijing,双裕花园西区,116.55538199315458,40.113313070667765,顺义,101112245982,3890000.0,41472,Middle,93.8,Flat,Plate,Mixed,Simplicity,No,1999,2,1,1,1
7,beijing,中粮祥云国际生活区,116.54354403331357,40.098554053570254,顺义,101110117141,4290000.0,51194,Low,83.8,Flat,Plate,Steel/Concrete,Hardcover,Yes,2013,2,1,1,1
8,beijing,长城国际,116.32356949528558,39.903923778112734,通州,101111723199,1980000.0,40808,Low,48.52,Flat,Tower,Steel/Concrete,Simplicity,Yes,2009,1,0,1,1
9,beijing,西府景园,116.2765031374125,39.88870114977185,丰台,101111350123,6980000.0,58464,Middle,119.39,Flat,Plate,Steel/Concrete,Simplicity,Yes,2004,3,2,1,2
10,beijing,翠谷玉景,116.25095838294746,39.923404814632946,石景山,101112794090,7200000.0,46882,Top ,153.58,Duplex,Plate,Steel/Concrete,Simplicity,No,2004,3,1,1,2
11,beijing,望京西园一区,116.48010893209874,40.010317093256624,朝阳,101112815987,6600000.0,57148,High,115.49,Duplex,Plate,Mixed,Hardcover,No,1997,3,2,1,2
12,beijing,北苑家园莲葩园,116.42803452100752,40.05103139505239,朝阳,101112453417,4850000.0,45319,Low,107.02,Flat,Tower,Steel/Concrete,Simplicity,Yes,2004,2,1,1,2
13,beijing,首开保利熙悦诚郡,116.43039571704051,39.82472309328116,大兴,101112801177,8360000.0,65023,Low,128.57,Flat,Plate,Steel/Concrete,Hardcover,Yes,2016,3,2,1,2
14,beijing,汇鸿家园,116.58869134112568,39.924842237240924,朝阳,101111311959,3900000.0,52639,Low,74.09,Flat,Plate & Tower,Steel/Concrete,Hardcover,Yes,2005,2,1,1,1
15,beijing,玉桥南里,116.68870867660664,39.89609298783278,通州,101112786462,3900000.0,35423,Top ,110.1,Flat,Plate,Mixed,Hardcover,No,1997,3,2,1,2
17,beijing,富贵园一区,116.43982397235102,39.90249719067785,东城,101112721044,21000000.0,133716,High,157.05,Duplex,Plate,Steel/Concrete,Simplicity,Yes,2004,4,2,1,2
18,beijing,新景家园东区,116.43208929241847,39.90143416673244,东城,101112804722,13600000.0,111879,Middle,121.56,Flat,Plate & Tower,Steel/Concrete,Hardcover,Yes,2010,2,1,1,2
19,beijing,都市经典家园,116.52709372383154,39.92028605216432,朝阳,101112785366,6100000.0,66565,High,91.64,Flat,Tower,Steel/Concrete,Hardcover,Yes,2003,2,1,1,1
20,beijing,禾风相府,116.42742600885508,39.92925709659209,东城,101112791238,9500000.0,141034,Top ,67.36,Flat,Plate,Steel/Concrete,Hardcover,Yes,2004,2,1,1,1
21,beijing,小关东街,116.41852514870945,39.98460610402795,朝阳,101112798525,7350000.0,70674,Top ,104,Flat,Plate,Mixed,Simplicity,No,1995,3,2,1,1
22,beijing,龙潭西里,116.43352487445397,39.885956789383116,东城,101112855294,5000000.0,113328,Middle,44.12,Flat,Plate,Mixed,Simplicity,No,1974,2,1,1,1
23,beijing,五芳园,116.2336357289847,39.90466504655672,石景山,101112790753,3090000.0,49157,Low,62.86,Flat,Plate,Mixed,Simplicity,No,1993,2,1,1,1
24,beijing,西革新里110号院,116.39663020953145,39.872214775586194,东城,101112798387,4880000.0,80943,Middle,60.29,Flat,Plate,Mixed,Simplicity,No,1992,2,1,1,1
25,beijing,建新南区,116.66156898070862,40.1268670388764,顺义,101112828377,2800000.0,49734,Middle,56.3,Flat,Plate,Mixed,Simplicity,No,1987,2,1,1,1
26,beijing,新康家园,116.49546591394459,39.80607572216842,亦庄开发区,101112834544,5980000.0,58651,Middle,101.96,Flat,Plate,Steel/Concrete,Simplicity,No,2001,2,2,1,1
27,beijing,京贸国际城,116.69099001327976,39.92485710792502,通州,101112829512,5300000.0,57267,High,92.55,Flat,Plate & Tower,Steel/Concrete,Hardcover,Yes,2011,2,1,1,1
28,beijing,老山西里,116.2250352622016,39.91516052342874,石景山,101112855552,2650000.0,52663,Middle,50.32,Flat,Plate,Steel/Concrete,Simplicity,No,1982,2,1,1,1
29,beijing,石榴园南里小区,116.42400103943717,39.85055405743201,丰台,101112806841,3350000.0,56011,Low,59.81,Flat,Plate,Mixed,Hardcover,No,2002,2,1,1,1
30,beijing,碧桂园小区A区,116.17142223343289,39.7667623087384,房山,101112790888,2480000.0,26963,Middle,91.98,Flat,Plate,Mixed,Simplicity,No,2003,2,1,1,1
31,beijing,天通苑北三区,116.44012625215514,40.08296368870586,昌平,101112843473,4460000.0,38393,Middle,116.17,Flat,Plate,Mixed,Simplicity,No,2004,2,1,1,2
32,beijing,松榆西里,116.47203298590294,39.88113008384472,朝阳,101112843402,5650000.0,61574,First Floor ,91.76,Flat,Plate,Mixed,Rough,No,1994,3,1,1,1
33,beijing,金汉绿港四区,116.6689402960624,40.14291745982546,顺义,101112810730,6400000.0,38457,Middle,166.42,Flat,Plate,Steel/Concrete,Simplicity,Yes,2009,3,2,1,2
34,beijing,松榆西里,116.47203298590294,39.88113008384472,朝阳,101112844184,5500000.0,60070,First Floor ,91.56,Flat,Plate,Mixed,Rough,No,1994,2,1,1,1
35,beijing,芭蕾雨悦都北区,116.1921783907159,39.76728918957609,房山,101112839143,3450000.0,41682,Middle,82.77,Flat,Plate,Steel/Concrete,Simplicity,Yes,2011,2,1,1,1
36,beijing,胜利小区,116.6608240159492,40.14214108354894,顺义,101112853142,2450000.0,37827,First Floor ,64.77,Flat,Plate,Mixed,Simplicity,No,1991,2,1,1,1
37,beijing,久敬佳园三区,116.41421022802282,39.8245330220968,丰台,101112841812,4880000.0,50129,High,97.35,Flat,Plate,Steel/Concrete,Hardcover,No,2005,2,2,1,2
38,beijing,复兴路79号院,116.27714910890471,39.91451718508861,海淀,101112843238,6240000.0,94978,First Floor ,65.7,Flat,Plate,Mixed,Simplicity,No,1990,2,1,1,1
39,beijing,鲁能7号院水岸公馆,116.67313403533572,40.188642034269044,顺义,101112849442,4120000.0,34174,Top ,120.56,Flat,Plate,Steel/Concrete,Hardcover,Yes,2014,3,2,1,2
40,beijing,国美第一城2号院,116.51820939250729,39.94012184232057,朝阳,101112846270,5290000.0,69368,High,76.26,Flat,Plate & Tower,Steel/Concrete,Hardcover,Yes,2006,2,1,1,1
41,beijing,安苑北里,116.41864156910356,39.99398868112335,朝阳,101112848790,5700000.0,81944,Low,69.56,Flat,Tower,Steel/Concrete,Hardcover,Yes,1990,2,2,1,1
42,beijing,奥林匹克花园三期,116.55184096266481,39.96575209921597,朝阳,101112838768,6980000.0,63059,Low,110.69,Flat,Plate,Steel/Concrete,Hardcover,Yes,2008,2,1,1,1
43,beijing,和光里,116.26750148738866,39.86722857085193,丰台,101112838761,6490000.0,55580,Low,116.77,Flat,Plate,Steel/Concrete,Simplicity,Yes,2005,3,1,1,2
44,beijing,新城乐居,116.69693356185599,39.87110898441399,通州,101112831163,3350000.0,42475,Low,78.87,Flat,Plate,Steel/Concrete,Hardcover,Yes,2012,2,1,1,1
45,beijing,知春路56号院,116.34418174402589,39.97982828651386,海淀,101112800326,9500000.0,123185,High,77.12,Flat,Plate & Tower,Steel/Concrete,Simplicity,Yes,1992,3,1,1,1
46,beijing,富东嘉园,116.55822737585744,39.952933859817065,朝阳,101112807698,4700000.0,51814,Middle,90.71,Flat,Plate,Mixed,Hardcover,No,2007,2,1,1,1
47,beijing,三虎桥南路12号院,116.3222700963654,39.94108814338823,海淀,101112805420,8000000.0,96039,Top ,83.3,Flat,Plate,Mixed,Simplicity,No,1980,3,1,1,1
48,beijing,万源南里,116.43218999246615,39.80344305110091,丰台,101112799742,3680000.0,46174,High,79.7,Flat,Plate,Mixed,Simplicity,No,1988,3,1,1,1
49,beijing,珠江绿洲,116.56775076172148,39.913965431139495,朝阳,101112792731,6350000.0,53537,Low,118.61,Flat,Tower,Steel/Concrete,Hardcover,Yes,2004,3,1,1,2
50,beijing,天之骄子,116.47206298930698,39.90150314893908,朝阳,101112814048,12800000.0,86780,Middle,147.5,Flat,Plate,Steel/Concrete,Hardcover,Yes,2006,3,2,1,2
51,beijing,西廊下胡同二号院,116.36769857380214,39.93702079013814,西城,101112804118,13500000.0,120860,Middle,111.7,Flat,Plate,Mixed,Simplicity,No,1954,3,1,1,2
52,beijing,惠新北里,116.42646122873735,39.99085789089197,朝阳,101112831425,10800000.0,86901,Low,124.28,Flat,Plate,Mixed,Simplicity,No,1997,3,2,1,1
53,beijing,银枫家园,116.50540566441249,39.99823522765152,朝阳,101112792376,8300000.0,50420,High,164.62,Flat,Plate & Tower,Steel/Concrete,Simplicity,Yes,2002,3,2,1,2
54,beijing,西派国际公寓,116.36494167419202,39.93551619909198,西城,101112855459,26800000.0,138616,High,193.34,Flat,Plate & Tower,Steel/Concrete,Hardcover,Yes,2009,3,2,1,2
55,beijing,禧福汇,116.48260828751917,39.889385492514386,朝阳,101112837090,8300000.0,94760,Middle,87.59,Flat,Plate & Tower,Steel/Concrete,Hardcover,Yes,2009,2,1,1,1
56,beijing,左家庄西街,116.44679228270047,39.95652959333853,朝阳,101112830971,3860000.0,65203,Middle,59.2,Flat,Plate,Mixed,Hardcover,No,1995,2,1,1,1
57,beijing,随园,116.27324669010827,40.23662670661484,昌平,101112835783,4260000.0,47801,Top ,89.12,Duplex,Plate,Steel/Concrete,Hardcover,Yes,2009,3,3,1,2
58,beijing,盛嘉华苑,116.3613158436621,39.74205251110924,大兴,101112795891,2700000.0,34857,Middle,77.46,Flat,Plate & Tower,Steel/Concrete,Simplicity,Yes,2012,2,2,1,1
59,beijing,福润四季B区,116.58800997639635,39.963827098290054,朝阳,101112803599,3900000.0,52328,First Floor ,74.53,Flat,Plate,Steel/Concrete,Hardcover,Yes,2015,2,1,1,1
60,beijing,华业东方玫瑰A区,116.6921314900913,39.88663417004858,通州,101112793299,4220000.0,44170,Low,95.54,Flat,Plate & Tower,Steel/Concrete,Simplicity,Yes,2011,3,1,1,1
61,beijing,索家坟,116.36730296005555,39.95765508627224,海淀,101112830108,7250000.0,114174,Low,63.5,Flat,Tower,Steel/Concrete,Simplicity,Yes,1987,2,1,1,1
62,beijing,华严北里1号院,116.393667508129,39.98677237560239,朝阳,101112830231,10280000.0,87999,High,116.82,Flat,Plate & Tower,Steel/Concrete,Hardcover,Yes,2004,2,2,1,1
63,beijing,天福园,116.29813819680646,39.83000414494122,朝阳,101112840918,5630000.0,106913,High,52.66,Flat,Plate,Mixed,Hardcover,No,1994,2,1,1,1
64,beijing,彩虹城一区,116.422679632032,39.84565005434085,丰台,101112801806,4950000.0,59718,Top ,82.89,Flat,Plate & Tower,Steel/Concrete,Hardcover,Yes,2003,2,1,1,1
65,beijing,金融街融汇,116.64719528407402,39.922344884454276,大兴,101112843117,3200000.0,43349,High,73.82,Flat,Plate & Tower,Steel/Concrete,Hardcover,Yes,2014,2,1,1,1
66,beijing,国瑞城中区,116.43058445102815,39.905126242351,东城,101112853879,11800000.0,128122,Middle,92.1,Flat,Tower,Steel/Concrete,Simplicity,Yes,2006,3,2,1,1
67,beijing,金隅景和园,116.55655401235346,39.95683710494818,朝阳,101112804761,4680000.0,60240,Middle,77.69,Flat,Plate,Steel/Concrete,Hardcover,Yes,2011,2,1,1,1
68,beijing,京棉新城三厂,116.51301745615129,39.92366917208881,朝阳,101112809924,5320000.0,62245,Middle,85.47,Flat,Tower,Steel/Concrete,Hardcover,Yes,2009,2,1,1,1
69,beijing,安华里社区,116.41119003506773,39.973667752503346,朝阳,101112829907,6000000.0,88042,Low,68.15,Flat,Plate,Mixed,Simplicity,No,1983,3,1,1,1
70,beijing,怡馨家园,116.65454351297619,40.126016689846914,顺义,101112811113,5120000.0,40443,Low,126.6,Split-Level,Plate,Steel/Concrete,Simplicity,Yes,2004,3,2,1,2
71,beijing,王府公寓四区,116.41660942237887,40.11157304901196,昌平,101112613347,5950000.0,23469,Middle,253.53,Duplex,Plate,Mixed,Hardcover,No,1996,5,3,1,3
72,beijing,本家润园一期,116.4433549418191,39.90268123244805,东城,101112600524,26990000.0,117553,High,229.6,Duplex,Plate,Steel/Concrete,Simplicity,Yes,2006,4,2,1,3
73,beijing,望京新城,116.4791990384477,40.00422710311743,朝阳,101112555555,8480000.0,64243,Low,132,Flat,Tower,Steel/Concrete,Hardcover,Yes,1998,4,1,1,2
74,beijing,天天家园,116.42449537695933,40.09320679799463,东城,101112693040,9700000.0,61764,High,157.05,Flat,Tower,Steel/Concrete,Simplicity,Yes,2002,3,1,1,1
75,beijing,万科城市花园,116.55958103243044,40.11010606284613,顺义,101112747029,6400000.0,40207,Middle,159.18,Flat,Plate,Mixed,Hardcover,Yes,2000,3,1,1,2
76,beijing,海淀南路,116.3157787610892,39.98172394609244,海淀,101112700121,14500000.0,128319,Middle,113,Flat,Plate,Steel/Concrete,Simplicity,Yes,1988,4,1,1,1
77,beijing,乔建里,116.33247071475341,39.90773139325084,海淀,101112813021,7950000.0,105299,Low,75.5,Flat,Plate,Mixed,Hardcover,No,1989,3,1,1,1
78,beijing,首城国际B区,116.47773623775524,39.894692807590054,朝阳,101112852672,9500000.0,107067,Top ,88.73,Flat,Plate,Steel/Concrete,Hardcover,Yes,2011,2,1,1,1
79,beijing,学院南路乙10号院,116.37238494381715,39.96332676053473,海淀,101112830482,5650000.0,99298,Middle,56.9,Flat,Plate,Mixed,Simplicity,No,1982,3,1,1,1
80,beijing,华贸城,116.43733997795484,40.05381305833712,朝阳,101112666643,18500000.0,87256,High,212.02,Flat,Plate & Tower,Steel/Concrete,Hardcover,Yes,2012,4,2,1,3
82,beijing,重聚园,116.23352927978176,39.90020084716254,石景山,101112707070,7380000.0,56152,First Floor ,131.43,Flat,Plate,Mixed,Simplicity,No,2007,3,1,1,2
83,beijing,丰汇园小区,116.37407636326189,39.92151617132381,西城,101112726436,28100000.0,179898,Top ,156.2,Duplex,Plate,Mixed,Hardcover,No,1999,3,2,1,3
84,beijing,天通苑东二区,116.44587639555506,40.074105043223284,昌平,101112718538,6350000.0,32010,High,198.38,Duplex,Plate,Mixed,Hardcover,No,2001,4,2,1,2
85,beijing,幸福艺居,116.69616155810071,39.894425085138685,通州,101112788548,6600000.0,36897,Middle,178.88,Duplex,Plate,Mixed,Simplicity,No,2004,5,2,1,2
86,beijing,首开常青藤四期,116.5393574804843,39.97020770546913,朝阳,101112723407,9700000.0,61517,First Floor ,157.68,Duplex,Plate,Steel/Concrete,Hardcover,Yes,2014,3,2,1,2
87,beijing,大苑海淀名著,116.25152997474345,39.934865653860356,海淀,101112706593,15300000.0,107724,Low,142.03,Flat,Plate,Steel/Concrete,Hardcover,Yes,2014,4,2,1,2
88,beijing,芭蕾雨悦都北区,116.1921783907159,39.76728918957609,房山,101112707612,5900000.0,67122,First Floor ,87.9,Duplex,Plate,Steel/Concrete,Hardcover,Yes,2011,3,2,1,2
89,beijing,幸福家园二期,116.43802601387281,39.89885409890755,东城,101112703787,21600000.0,115453,Middle,187.09,Flat,Plate & Tower,Steel/Concrete,Hardcover,Yes,2003,4,1,1,3
90,beijing,K2清水湾,116.84822473855766,40.40553105757267,通州,101112712316,7570000.0,66738,High,113.43,Flat,Tower,Steel/Concrete,Hardcover,Yes,2012,3,2,1,2
91,beijing,K2玉蘭湾,116.66641722537653,39.893071441035666,通州,101112409518,8150000.0,59734,Middle,136.44,Flat,Plate,Steel/Concrete,Hardcover,Yes,2015,3,2,1,1
92,beijing,小关北里,116.42182803840855,39.98772004581759,朝阳,101112580379,6350000.0,85580,First Floor ,74.2,Flat,Plate,Mixed,Simplicity,No,1997,2,1,1,1
93,beijing,城市芳庭,116.44344800626995,39.870803789808484,丰台,101112591997,7600000.0,67870,Low,111.98,Flat,Tower,Steel/Concrete,Simplicity,Yes,1999,3,1,1,2
94,beijing,万科星园,116.41929796093969,40.03496277744816,朝阳,101112663497,14000000.0,93197,Middle,150.22,Flat,Tower,Steel/Concrete,Simplicity,Yes,2003,3,1,1,2
95,beijing,南顶村,116.41487533342242,39.84881904928931,丰台,101112563158,4350000.0,50611,High,85.95,Flat,Tower,Steel/Concrete,Simplicity,Yes,1997,3,1,1,1
96,beijing,运河明珠,116.69663038374637,39.9066577275671,通州,101112712738,5800000.0,52121,Middle,111.28,Flat,Tower,Steel/Concrete,Hardcover,Yes,2008,2,2,1,1
97,beijing,芳星园三区,116.44201008864012,39.86650011634015,丰台,101112748248,5500000.0,66845,High,82.28,Flat,Tower,Steel/Concrete,Simplicity,Yes,1991,3,1,1,1
98,beijing,后现代城D区,116.4919611749974,39.904069901484725,朝阳,101112709677,7100000.0,77469,High,91.65,Flat,Tower,Steel/Concrete,Simplicity,Yes,2006,2,2,1,1
99,beijing,天赐良园二期,116.65022787364515,39.93410099418256,通州,101112712876,3950000.0,50357,First Floor ,78.44,Flat,Plate,Mixed,Simplicity,No,2002,2,1,1,1
100,beijing,安苑北里,116.41864156910356,39.99398868112335,朝阳,101112699433,6150000.0,81103,High,75.83,Flat,Tower,Steel/Concrete,Simplicity,Yes,1989,3,1,1,1
101,beijing,东大桥东里,116.4573576382781,39.9266786383526,朝阳,101112804873,3200000.0,87194,Middle,36.7,Flat,Plate,Brick/Concrete,Simplicity,No,1979,1,1,1,1
102,beijing,芳城园一区,116.44228631758443,39.875385302854944,丰台,101112718513,5450000.0,54041,High,100.85,Flat,Tower,Steel/Concrete,Simplicity,Yes,1993,3,1,1,1
103,beijing,农光里,116.47097262607896,39.888028772341514,朝阳,101112715787,5100000.0,65520,Middle,77.84,Flat,Plate,Steel/Concrete,Hardcover,No,1998,2,1,1,1
104,beijing,万年花城五期,116.31917911693611,39.85017959798714,丰台,101112761037,12000000.0,87752,High,136.75,Flat,Plate,Steel/Concrete,Rough,Yes,2011,3,1,1,2
105,beijing,兴海家园月苑,116.34383400996296,39.799749061314074,大兴,101112740916,3950000.0,51120,Middle,77.27,Flat,Plate,Mixed,Hardcover,No,2006,2,1,1,1
106,beijing,春风胡同社区,116.43787437990272,39.937895715556806,西城,101112799011,7200000.0,110075,Middle,65.41,Flat,Plate & Tower,Steel/Concrete,Hardcover,Yes,2004,2,1,1,1
107,beijing,大方居,116.63632686536988,39.88197769922303,通州,101112800686,2790000.0,31028,Middle,89.92,Flat,Plate & Tower,Steel/Concrete,Hardcover,Yes,2008,2,1,1,1
108,beijing,三义里,116.33547599583703,39.89495118747271,西城,101112836578,7100000.0,108880,Middle,65.21,Flat,Tower,Steel/Concrete,Simplicity,Yes,1981,2,1,1,1
109,beijing,城子二斜井,116.09770916972569,39.95362571391015,门头沟,101112780660,1770000.0,31256,High,56.63,Flat,Plate,Mixed,Simplicity,No,1992,2,1,1,1
110,beijing,华威北里,116.46375743622282,39.885020639306674,朝阳,101112726267,4950000.0,65038,High,76.11,Flat,Plate & Tower,Steel/Concrete,Hardcover,Yes,1999,2,1,1,1
111,beijing,建茗苑,116.33175494492306,39.87880879419794,丰台,101112756246,5790000.0,61919,First Floor ,93.51,Flat,Tower,Steel/Concrete,Simplicity,Yes,2008,3,2,1,1
112,beijing,教场口9号院,116.38717761014162,39.96056543528639,西城,101112714958,12600000.0,147905,Middle,85.19,Flat,Tower,Steel/Concrete,Simplicity,Yes,2005,3,1,1,1
113,beijing,清源西里,116.34175595982673,39.74854144800043,大兴,101112837500,2550000.0,42930,Low,59.4,Flat,Plate & Tower,Mixed,Simplicity,No,1992,2,1,1,1
114,beijing,昌盛园二区,116.26324208198255,40.21770365517781,昌平,101112721547,3490000.0,35817,High,97.44,Flat,Plate,Mixed,Simplicity,No,1998,2,2,1,1
115,beijing,昌盛园二区,116.26324208198255,40.21770365517781,昌平,101112802991,3050000.0,40516,Middle,75.28,Flat,Plate,Mixed,Hardcover,No,1999,2,1,1,1
116,beijing,通惠家园,116.51253111354818,39.9161352039967,朝阳,101112759887,4420000.0,58412,Low,75.67,Flat,Plate & Tower,Steel/Concrete,Simplicity,Yes,2001,2,1,1,1
117,beijing,嘉美风尚中心,116.48865109885423,39.993495268235336,朝阳,101112697753,11980000.0,73497,High,163,Flat,Plate,Steel/Concrete,Hardcover,Yes,2006,3,2,1,2
118,beijing,飘HOME,116.4946163864238,39.97682525420871,朝阳,101112746233,4250000.0,66293,Low,64.11,Flat,Tower,Steel/Concrete,Hardcover,Yes,2004,1,1,1,1
119,beijing,芍药居,116.449026663148,39.98481279702098,朝阳,101112778757,7100000.0,101313,Middle,70.08,Flat,Tower,Steel/Concrete,Hardcover,Yes,1997,2,2,1,1
120,beijing,安华里社区,116.41119003506773,39.973667752503346,朝阳,101112714622,3700000.0,79196,Low,46.72,Flat,Plate & Tower,Steel/Concrete,Hardcover,Yes,1992,1,1,1,1
121,beijing,管庄东里,116.6033718989225,39.92487730438378,朝阳,101112699712,3600000.0,51473,First Floor ,69.94,Flat,Plate,Mixed,Hardcover,No,1991,3,1,1,1
122,beijing,华润小区,116.40008895523651,39.859225111933085,丰台,101112699434,3350000.0,52931,Low,63.29,Flat,Plate,Mixed,Simplicity,No,1996,2,1,1,1
123,beijing,听涛雅苑,116.64959043605528,39.89750801591153,亦庄开发区,101112734125,6900000.0,50347,Low,137.05,Split-Level,Plate,Steel/Concrete,Hardcover,Yes,2000,3,1,1,2
124,beijing,康静里,116.53915428377795,39.96777160480555,朝阳,101112794455,3090000.0,51024,Middle,60.56,Flat,Plate,Mixed,Hardcover,No,1993,2,1,1,1
125,beijing,永安东里,116.28697198982577,39.93512505666598,海淀,101112760510,11800000.0,99747,Middle,118.3,Flat,Plate,Mixed,Simplicity,No,1999,3,2,1,1
126,beijing,佟馨家园,116.31759226025274,39.73100852917105,大兴,101112720251,2680000.0,30636,First Floor ,87.48,Flat,Plate,Steel/Concrete,Simplicity,Yes,2016,2,2,1,1
127,beijing,园林小区,116.25092298971036,39.9147469198338,石景山,101112760334,4990000.0,62119,Top ,80.33,Flat,Plate,Mixed,Simplicity,No,2003,2,2,1,1
128,beijing,格兰晴天,116.6800355369078,39.89573600861571,通州,101112721545,2820000.0,58470,High,48.23,Flat,Plate & Tower,Steel/Concrete,Hardcover,Yes,2004,1,1,1,1
129,beijing,名都家苑,116.37898299778794,39.8450951101738,丰台,101112731597,8700000.0,74252,Middle,117.17,Flat,Plate,Steel/Concrete,Hardcover,Yes,2006,2,1,1,2
130,beijing,国美第一城3号院,116.52147051100017,39.93969283176998,朝阳,101112731964,7390000.0,66975,Middle,110.34,Flat,Plate & Tower,Steel/Concrete,Hardcover,Yes,2007,2,2,1,1
131,beijing,芳古园一区,116.43110403093513,39.874733074373154,丰台,101112737396,4380000.0,69195,Middle,63.3,Flat,Tower,Steel/Concrete,Hardcover,Yes,1992,2,1,1,1
132,beijing,天通苑北一区,116.42363345282249,40.08074377094799,昌平,101112763384,4580000.0,40478,Middle,113.15,Flat,Tower,Steel/Concrete,Simplicity,Yes,2004,3,1,1,2
133,beijing,鸿业兴园二区,116.31310782931638,39.84481389703488,丰台,101112745847,4450000.0,52041,Low,85.51,Flat,Tower,Steel/Concrete,Simplicity,Yes,2010,2,1,1,1
134,beijing,建设三里,116.1974532406705,39.837451253352725,丰台,101112757977,2210000.0,29873,High,73.98,Flat,Plate,Brick/Concrete,Simplicity,No,1999,2,1,1,1
135,beijing,福润四季B区,116.58800997639635,39.963827098290054,朝阳,101112698899,3690000.0,49050,Low,75.23,Flat,Plate,Steel/Concrete,Simplicity,Yes,2015,2,1,1,1
136,beijing,金隅通和园,116.71026890715162,39.88240382145911,通州,101112781832,3150000.0,37608,Low,83.76,Flat,Plate & Tower,Steel/Concrete,Hardcover,Yes,NaN,2,1,1,1
137,beijing,芳园南里西区,116.48838636822043,39.976054363234056,朝阳,101112823840,2880000.0,60013,Middle,47.99,Flat,Plate,Mixed,Simplicity,No,1996,1,1,1,1
138,beijing,宏大北园,116.34767579313748,39.80573399894347,大兴,101112723923,3880000.0,41356,Top ,93.82,Flat,Plate,Steel/Concrete,Other,Yes,2006,2,1,1,1
139,beijing,碧桂园小区C区,116.17667354778312,39.76883264973147,房山,101112768863,2690000.0,29186,High,92.17,Flat,Plate & Tower,Steel/Concrete,Simplicity,Yes,2007,2,1,1,1
140,beijing,冠城南园,116.38405626798608,39.97890324344601,海淀,101112852061,9500000.0,132073,High,71.93,Flat,Plate & Tower,Steel/Concrete,Rough,Yes,1998,1,1,1,1
141,beijing,农展南里,116.47025254438216,39.940087267102626,朝阳,101112845730,4750000.0,73758,Top ,64.4,Flat,Plate,Steel/Concrete,Hardcover,No,1980,2,1,1,1
142,beijing,首开国风美唐二期,116.36684096153176,40.08549404374912,昌平,101112795495,6250000.0,75584,Middle,82.69,Flat,Plate,Steel/Concrete,Simplicity,Yes,2014,2,1,1,1
143,beijing,西木小区,116.27853645193433,39.93916140536714,海淀,101112842890,5980000.0,96608,First Floor ,61.9,Flat,Tower,Mixed,Hardcover,No,1992,2,1,1,1
144,beijing,双峪路小区,116.11543103065709,39.94123508577637,门头沟,101112795819,1820000.0,33754,Top ,53.92,Flat,Plate,Mixed,Simplicity,No,1981,2,1,1,1
145,beijing,凯盛家园,116.17806403488203,40.055980084788814,海淀,101112798250,5080000.0,65372,Low,77.71,Flat,Plate,Steel/Concrete,Hardcover,Yes,2013,2,1,1,1
146,beijing,安慧里四区,116.41929418805655,39.99693547177334,朝阳,101112813815,4590000.0,86588,High,53.01,Flat,Plate,Mixed,Hardcover,No,1989,2,1,1,1
147,beijing,乔建里,116.33247071475341,39.90773139325084,海淀,101112803230,5490000.0,110021,High,49.9,Flat,Tower,Steel/Concrete,Simplicity,Yes,1991,1,1,1,1
148,beijing,长城国际,116.32356949528558,39.903923778112734,通州,101112804483,2330000.0,43406,High,53.68,Flat,Tower,Steel/Concrete,Hardcover,Yes,2009,1,1,1,1
149,beijing,恋日花都,116.3578362572692,39.849596993714144,丰台,101112725684,5400000.0,78764,Middle,68.56,Flat,Tower,Steel/Concrete,Simplicity,Yes,2006,2,1,1,1
150,beijing,慧时欣园二期,116.41902236080924,39.85326827291929,丰台,101112750783,6650000.0,66414,Middle,100.13,Flat,Tower,Steel/Concrete,Simplicity,Yes,2003,2,1,1,2
151,beijing,建材城东二里,116.38180529403918,40.069466952885065,海淀,101112841410,4600000.0,69007,Middle,66.66,Flat,Plate,Mixed,Simplicity,No,1998,2,1,1,1
152,beijing,枣园北里,116.32993425931542,39.759658033040274,大兴,101112699959,2530000.0,31792,High,79.58,Flat,Plate,Mixed,Simplicity,No,1996,2,1,1,1
153,beijing,新桥南大街,116.11551807825761,39.93411265446014,门头沟,101112849034,1850000.0,33364,High,55.45,Flat,Plate,Mixed,Simplicity,No,1989,2,1,1,1
154,beijing,珠江丽景家园,116.68897322757931,39.937424714979855,通州,101112838397,3200000.0,40491,High,79.03,Flat,Plate & Tower,Steel/Concrete,Simplicity,Yes,2010,2,1,1,1
155,beijing,花家地北里,116.47344709843675,39.99292411812027,朝阳,101112818889,3450000.0,79862,Low,43.2,Flat,Tower,Mixed,Hardcover,Yes,1994,1,1,1,1
156,beijing,福润四季A区,116.58441495774542,39.96398007454317,朝阳,101112714597,3890000.0,51050,Middle,76.2,Flat,Plate,Steel/Concrete,Hardcover,Yes,2015,2,1,1,1
157,beijing,亮马水晶,116.49728848599376,39.96646974394011,朝阳,101112788969,5100000.0,73329,Middle,69.55,Flat,Plate,Steel/Concrete,Hardcover,Yes,2003,2,1,1,1
158,beijing,富力阳光美园,116.61305697977832,39.933898088559005,朝阳,101112755072,4660000.0,51957,Top ,89.69,Flat,Tower,Steel/Concrete,Hardcover,Yes,2010,3,1,1,1
159,beijing,凯盛家园,116.17806403488203,40.055980084788814,海淀,101112819208,4000000.0,65953,High,60.65,Flat,Plate & Tower,Steel/Concrete,Simplicity,Yes,2013,1,1,1,1
160,beijing,怡秀园小区,116.31111520803415,39.9699812687492,海淀,101112842714,9500000.0,133841,High,70.98,Flat,Tower,Steel/Concrete,Simplicity,Yes,1995,2,1,1,1
161,beijing,国美第一城3号院,116.52147051100017,39.93969283176998,朝阳,101112774159,6790000.0,67322,High,100.86,Flat,Plate & Tower,Steel/Concrete,Hardcover,Yes,2007,2,1,1,1
162,beijing,丽都壹号,116.51295933578479,39.98502764373342,朝阳,101112717994,8250000.0,93189,Low,88.53,Flat,Plate,Steel/Concrete,Hardcover,Yes,2013,2,1,1,2
163,beijing,北街家园一区,116.28357280177603,39.638007264367545,昌平,101112770003,6080000.0,44158,Middle,137.69,Flat,Plate,Steel/Concrete,Hardcover,Yes,2008,4,2,1,2
164,beijing,金隅糖,116.19278645371561,39.7447290901783,房山,101112757480,4000000.0,44778,High,89.33,Flat,Plate,Steel/Concrete,Simplicity,Yes,2017,3,1,1,1
165,beijing,考拉社区,116.35311206859222,39.88238001349813,西城,101112818978,4450000.0,129625,High,34.33,Flat,Plate & Tower,Steel/Concrete,Hardcover,Yes,2006,1,1,1,1
166,beijing,石景山路23号院,116.21934593408471,39.915137211167284,石景山,101112708856,4400000.0,59856,First Floor ,73.51,Flat,Plate & Tower,Steel/Concrete,Simplicity,Yes,1995,2,1,1,1
167,beijing,海户西里34号院,116.39558089886525,39.85660494794929,丰台,101112723159,4480000.0,53911,Low,83.1,Flat,Tower,Steel/Concrete,Simplicity,Yes,1998,3,1,1,1
168,beijing,燕莎后,116.50655828021233,39.96501834076332,朝阳,101112760919,8800000.0,79819,Middle,110.25,Flat,Tower,Steel/Concrete,Simplicity,Yes,2005,2,1,1,2
169,beijing,双合家园,116.40870604067155,40.0897760414017,朝阳,101112779876,4150000.0,46426,High,89.39,Flat,Plate,Steel/Concrete,Simplicity,Yes,2013,2,2,1,1
170,beijing,三义西里,116.3347829531361,39.89447546049565,西城,101112805985,8500000.0,101384,First Floor ,83.84,Flat,Plate,Mixed,Hardcover,No,2003,2,1,1,1
171,beijing,枣园东里,116.34166702758125,39.759566096222045,大兴,101112773583,3800000.0,42115,Middle,90.23,Flat,Plate,Mixed,Simplicity,No,2001,2,2,1,1
172,beijing,水清木华园,116.33388617474549,39.99619424324399,海淀,101112783379,19500000.0,131261,Middle,148.56,Flat,Plate,Steel/Concrete,Hardcover,Yes,1999,3,2,1,2
173,beijing,民安小区民安街,116.43699350151964,39.94904781376192,东城,101112821652,9200000.0,124645,High,73.81,Flat,Plate,Steel/Concrete,Simplicity,No,2002,2,1,1,1
174,beijing,嘉园二里,116.37729023088494,39.853404950195234,丰台,101112820078,3450000.0,56071,Middle,61.53,Flat,Plate & Tower,Mixed,Simplicity,No,1996,2,1,1,1
175,beijing,松榆西里,116.47203298590294,39.88113008384472,朝阳,101112702894,2670000.0,69315,First Floor ,38.52,Flat,Plate,Brick/Concrete,Simplicity,No,1987,1,1,1,1
176,beijing,朝阳无限,116.51845103668948,39.924010096236984,朝阳,101112742103,6300000.0,63038,Low,99.94,Flat,Tower,Steel/Concrete,Simplicity,Yes,2003,2,1,1,1
177,beijing,芍药居北里,116.44254296346864,39.99194888164441,朝阳,101112723384,5780000.0,83890,Middle,68.9,Flat,Tower,Steel/Concrete,Simplicity,Yes,1997,2,1,1,1
178,beijing,清和园,116.3826487130825,39.91686893762386,大兴,101112721882,2630000.0,34002,Top ,77.35,Flat,Plate,Mixed,Simplicity,No,1997,2,1,1,1
179,beijing,领秀慧谷A区,116.31172857103635,40.103995047778334,昌平,101112737486,3980000.0,62707,High,63.47,Flat,Plate,Steel/Concrete,Hardcover,Yes,2011,1,1,1,1
180,beijing,芳群公寓,116.43134235138692,39.86512383314395,丰台,101112764420,6220000.0,48682,High,127.77,Flat,Tower,Steel/Concrete,Hardcover,Yes,2000,2,1,1,2
181,beijing,保利嘉园一号院,116.6147340263349,39.93687805700518,朝阳,101112728421,4790000.0,53640,Middle,89.3,Flat,Tower,Steel/Concrete,Simplicity,Yes,2009,2,1,1,1
182,beijing,青年湖东里,116.413109624112,39.9626012711467,东城,101112797625,5660000.0,121408,Middle,46.62,Flat,Tower,Steel/Concrete,Rough,Yes,1988,1,1,1,1
183,beijing,北沙滩4号院,116.37519933497991,40.011446385107234,朝阳,101112726574,4700000.0,63343,Middle,74.2,Flat,Plate,Mixed,Simplicity,No,1992,3,1,1,1
184,beijing,东风家园,116.50155426936901,39.96391931266559,朝阳,101112708260,5880000.0,55985,High,105.03,Flat,Tower,Steel/Concrete,Simplicity,Yes,2000,2,2,1,1
185,beijing,南太平庄北巷,116.4133836971231,39.910924547299565,朝阳,101112780969,4800000.0,52425,Middle,91.56,Flat,Plate,Steel/Concrete,Hardcover,No,2004,2,1,1,1
186,beijing,北苑家园茉藜园,116.4305310018503,40.04557204907456,朝阳,101112756063,5350000.0,47603,Low,112.39,Flat,Tower,Steel/Concrete,Other,Yes,2003,2,2,1,2
187,beijing,万科蓝蓝沁家园,116.30408003860221,39.82189309743244,丰台,101112719036,7500000.0,79332,High,94.54,Flat,Plate,Steel/Concrete,Hardcover,Yes,2014,3,1,1,1
188,beijing,太平桥东里,116.32952606929169,39.89110991710682,丰台,101112845106,3850000.0,65925,Middle,58.4,Flat,Plate,Mixed,Simplicity,No,1989,2,1,1,1
189,beijing,杨庄北区,116.20139895779252,39.933243101748964,石景山,101112796174,3490000.0,59344,High,58.81,Flat,Tower,Steel/Concrete,Simplicity,Yes,2000,1,1,1,1
190,beijing,老山西里,116.2250352622016,39.91516052342874,石景山,101112753232,2550000.0,50747,High,50.25,Flat,Plate,Steel/Concrete,Simplicity,No,1982,2,1,1,1
191,beijing,DBC加州小镇C区,116.68976634151409,39.87055701657621,通州,101112806763,3280000.0,50516,High,64.93,Flat,Plate,Steel/Concrete,Hardcover,Yes,2010,1,1,1,1
192,beijing,天通苑中苑,116.43371495589989,40.07866407586977,昌平,101112783550,4350000.0,46455,Low,93.64,Flat,Plate,Steel/Concrete,Simplicity,Yes,2008,2,1,1,2
193,beijing,青塔东里,116.27695399694795,39.89996006182523,丰台,101112743381,5460000.0,57149,Middle,95.54,Flat,Plate,Mixed,Hardcover,No,1998,3,1,1,1
194,beijing,龙博苑三区,116.351528984792,40.07222832620872,昌平,101112795227,3980000.0,67561,First Floor ,58.91,Flat,Plate,Mixed,Simplicity,No,2005,1,1,1,1
195,beijing,清逸园,116.32304398656224,39.65215403026741,大兴,101112749443,3450000.0,37917,Middle,90.99,Flat,Plate,Mixed,Rough,No,1998,3,1,1,1
196,beijing,北京方向,116.3069374585989,39.819330933771774,丰台,101112801555,5420000.0,64833,Middle,83.6,Flat,Plate,Steel/Concrete,Hardcover,Yes,2015,2,1,1,1
197,beijing,金鱼池东区,116.41730300406313,39.8960114757828,东城,101112767145,6800000.0,110732,First Floor ,61.41,Flat,Plate,Steel/Concrete,Simplicity,No,2003,2,1,1,1
198,beijing,万年花城二期,116.32548297585238,39.852767051320996,丰台,101112770320,12100000.0,76875,High,157.4,Flat,Plate & Tower,Steel/Concrete,Hardcover,Yes,2005,4,2,1,2
199,beijing,西潞园一里,116.13708297819463,39.739036058782574,房山,101112844256,2040000.0,32351,Middle,63.06,Flat,Plate,Mixed,Simplicity,No,1993,2,1,1,1
200,beijing,鹿海园三里,116.50633370383484,39.7655405534936,大兴,101112741352,3850000.0,48983,High,78.6,Flat,Plate,Mixed,Simplicity,No,2005,2,1,1,1
201,beijing,光华欣居,116.47920748251948,39.918851161679946,朝阳,101112698930,4350000.0,70377,Middle,61.81,Flat,Plate,Mixed,Hardcover,Yes,1994,2,1,1,1
202,beijing,左安浦园,116.4445752898544,39.87960819773751,东城,101112731926,10500000.0,82671,High,127.01,Flat,Plate,Steel/Concrete,Hardcover,Yes,2004,3,1,1,1
203,beijing,蒲安北里,116.42688612724356,39.87253830695766,丰台,101112816243,3300000.0,67458,High,48.92,Flat,Tower,Steel/Concrete,Simplicity,Yes,1992,1,1,1,1
204,beijing,葡东小区,116.1253086183837,39.930621777286404,门头沟,101112754208,2700000.0,36237,High,74.51,Flat,Plate,Mixed,Simplicity,No,2000,2,1,1,1
205,beijing,格调,116.56087108897331,39.76669291268304,西城,101112769728,12500000.0,130644,Middle,95.68,Flat,Plate & Tower,Steel/Concrete,Hardcover,Yes,2005,2,1,1,1
206,beijing,荣丰2008,116.34332601819709,39.90028007088735,西城,101112810973,5500000.0,158228,Middle,34.76,Duplex,Tower,Steel/Concrete,Simplicity,Yes,2007,1,1,1,2
207,beijing,东亚逸品阁,116.69569416974386,39.93954401896632,通州,101112853029,4580000.0,50126,Middle,91.37,Flat,Plate & Tower,Steel/Concrete,Simplicity,Yes,2013,2,2,1,1
208,beijing,二七剧场路,116.35291776511042,39.91630668822297,西城,101112792304,7150000.0,164368,High,43.5,Flat,Tower,Mixed,Simplicity,Yes,1987,1,1,1,1
209,beijing,小街之春,116.1957520296957,39.920799088711846,通州,101112776755,2810000.0,36151,First Floor ,77.73,Flat,Plate,Mixed,Simplicity,No,2003,2,1,1,1
210,beijing,郁花园一里,116.34483400365667,39.78059608904561,大兴,101112797358,6000000.0,40285,High,148.94,Flat,Plate,Mixed,Simplicity,No,1998,3,1,1,2
211,beijing,崇文门东大街,116.43398381873901,39.906754170683485,东城,101112827154,4620000.0,114926,High,40.2,Flat,Plate,Mixed,Simplicity,Yes,1980,1,1,1,1
212,beijing,驼房营南里,116.51149033678432,39.96566203018846,朝阳,101112793155,5050000.0,62392,Middle,80.94,Flat,Plate,Mixed,Hardcover,No,1999,2,1,1,1
213,beijing,烟厂宿舍,116.58737074219547,39.92292949429596,朝阳,101112784441,2500000.0,60329,High,41.44,Flat,Plate,Mixed,Hardcover,No,1994,1,1,1,1
214,beijing,当代名筑,116.67170528042212,39.89572161592721,通州,101112800136,3450000.0,54076,Middle,63.8,Flat,Plate & Tower,Steel/Concrete,Hardcover,Yes,2005,2,1,1,1
215,beijing,彩虹新城,116.34198098535698,39.754378121596766,大兴,101112779315,4350000.0,47971,Middle,90.68,Flat,Plate,Steel/Concrete,Simplicity,Yes,2007,2,1,1,1
216,beijing,柳芳北街9号院,116.43927097547909,39.96632831696377,朝阳,101112788469,4550000.0,81091,Low,56.11,Flat,Plate,Mixed,Other,No,1993,2,1,1,1
217,beijing,广和里七巷,116.4543756763072,39.8947046890036,朝阳,101112823302,2680000.0,62911,Middle,42.6,Flat,Plate,Mixed,Simplicity,No,1986,1,1,1,1
218,beijing,潘家园东里,116.46145400123415,39.8844760510656,朝阳,101112801878,5200000.0,60898,Low,85.39,Flat,Tower,Steel/Concrete,Simplicity,Yes,1994,3,1,1,1
219,beijing,金隅景和园,116.55655401235346,39.95683710494818,朝阳,101112814242,5460000.0,61081,Middle,89.39,Flat,Plate,Steel/Concrete,Hardcover,Yes,2011,3,1,1,1
220,beijing,天堂河东区,116.3373457289255,39.67815386234997,大兴,101112802628,2400000.0,29499,Middle,81.36,Flat,Plate,Mixed,Simplicity,No,2007,2,1,1,1
221,beijing,金隅通和园,116.71026890715162,39.88240382145911,通州,101112801101,3190000.0,38513,Middle,82.83,Flat,Plate,Steel/Concrete,Hardcover,Yes,2012,2,2,1,1
222,beijing,芍药居北里,116.44254296346864,39.99194888164441,朝阳,101112797423,8080000.0,91892,Middle,87.93,Flat,Tower,Steel/Concrete,Hardcover,Yes,1998,3,1,1,1
223,beijing,华严北里小区,116.39170300380923,39.99039893570479,朝阳,101112832112,9450000.0,90164,Middle,104.81,Flat,Plate,Mixed,Simplicity,No,1991,3,1,1,2
224,beijing,金汉绿港三区,116.6662403490216,40.14219885877206,顺义,101112831715,3990000.0,41948,Middle,95.12,Flat,Plate,Steel/Concrete,Hardcover,Yes,2009,3,1,1,1
225,beijing,彩虹城四区,116.41939919997067,39.84534329140333,丰台,101112795133,4260000.0,65873,Low,64.67,Flat,Tower,Steel/Concrete,Hardcover,Yes,2005,2,1,1,1
226,beijing,宋家庄家园二区,116.43349064901403,39.85481858149026,丰台,101112810946,4500000.0,65105,High,69.12,Flat,Tower,Steel/Concrete,Simplicity,Yes,2010,2,1,1,1
227,beijing,秀蝶双座,116.2544736320691,39.89892010846043,丰台,101112800730,5290000.0,57338,Low,92.26,Flat,Tower,Steel/Concrete,Hardcover,Yes,2007,2,2,1,1
228,beijing,安华西里社区,116.40396406554547,39.97322077633398,朝阳,101112801656,7300000.0,97308,Middle,75.02,Flat,Plate,Steel/Concrete,Hardcover,Yes,1987,3,1,1,1
229,beijing,华昱家园,116.3351889872266,39.73390409442645,大兴,101112794587,5500000.0,44979,Middle,122.28,Flat,Plate,Steel/Concrete,Hardcover,Yes,2002,3,2,1,2
230,beijing,京贸国际城,116.69099001327976,39.92485710792502,通州,101112794866,5350000.0,57863,Low,92.46,Flat,Plate & Tower,Steel/Concrete,Hardcover,Yes,2015,2,1,1,1
231,beijing,荟康苑,116.59112044905523,39.924145386416775,朝阳,101112811458,3450000.0,52552,First Floor ,65.65,Flat,Plate,Mixed,Hardcover,No,1996,2,1,1,1
232,beijing,天通西苑二区,116.41863515520221,40.0772758428414,昌平,101112809116,4100000.0,43378,Low,94.52,Flat,Tower,Mixed,Simplicity,Yes,2003,2,2,1,1
233,beijing,马赛公馆,116.32091536182581,39.750960165225,大兴,101112808422,3850000.0,46369,Low,83.03,Flat,Plate,Steel/Concrete,Simplicity,Yes,2012,2,1,1,1
234,beijing,茂华景公阁,116.20927440219849,39.92381186382019,石景山,101112795698,7800000.0,70826,Middle,110.13,Flat,Plate,Steel/Concrete,Hardcover,Yes,2008,2,2,1,2
235,beijing,康盛园,116.32151318414269,39.767571623762336,大兴,101112800911,4100000.0,43729,Middle,93.76,Flat,Plate,Mixed,Hardcover,No,1998,3,1,1,1
236,beijing,龙华园,116.33118101753273,40.0809530687648,昌平,101112862128,4690000.0,47721,Middle,98.28,Flat,Plate,Mixed,Simplicity,No,2002,3,1,1,1
237,beijing,石佛营西里小区,116.50515225242812,39.939379646824015,朝阳,101112801529,4490000.0,69993,Low,64.15,Flat,Plate,Brick/Concrete,Hardcover,No,1994,2,1,1,1
238,beijing,南十里居10号院,116.50700698381458,39.96319382961531,朝阳,101112811319,6360000.0,68676,Middle,92.61,Flat,Plate,Mixed,Hardcover,No,1999,2,1,1,1
239,beijing,慧忠里,116.40793718098554,40.01368197927035,朝阳,101112832064,7590000.0,98932,High,76.72,Flat,Plate,Mixed,Simplicity,No,1993,3,1,1,1
240,beijing,龙泽苑东区,116.33419402404375,40.07899504267787,昌平,101112794372,6800000.0,50263,Middle,135.29,Flat,Plate,Steel/Concrete,Simplicity,No,2003,3,2,1,2
241,beijing,金丰园,116.32240502185299,39.856384086606965,丰台,101112798093,5150000.0,54805,High,93.97,Flat,Plate,Mixed,Hardcover,No,2001,2,2,1,1
242,beijing,北苑家园茉藜园,116.4305310018503,40.04557204907456,朝阳,101112818285,5800000.0,56399,Middle,102.84,Flat,Plate & Tower,Steel/Concrete,Simplicity,Yes,2005,2,1,1,2
243,beijing,运河园,116.69297868201777,39.91774834224963,通州,101112842885,4760000.0,55614,Low,85.59,Flat,Plate,Mixed,Hardcover,No,2001,2,1,1,1
244,beijing,公园1872,116.50400727222511,39.93189272044746,朝阳,101112829558,12990000.0,103796,High,125.15,Flat,Plate & Tower,Steel/Concrete,Hardcover,Yes,2010,2,1,1,2
245,beijing,三义庙北,116.32552375892254,39.97705595306707,海淀,101112807179,7800000.0,111909,Low,69.7,Flat,Plate,Mixed,Hardcover,No,1993,3,1,1,1
246,beijing,北重西厂,116.23355326453887,39.89900687563688,石景山,101112817683,3600000.0,51488,Middle,69.92,Flat,Plate,Mixed,Hardcover,No,2000,2,1,1,1
247,beijing,十里堡北里,116.51182001490648,39.92839810552587,朝阳,101112793249,4980000.0,62824,High,79.27,Flat,Tower,Steel/Concrete,Hardcover,Yes,1992,3,2,1,1
248,beijing,欧陆经典,116.42474591436604,40.00238112473568,朝阳,101112804177,11800000.0,82432,Middle,143.15,Flat,Tower,Steel/Concrete,Simplicity,Yes,2001,3,2,1,2
249,beijing,国兴家园,116.33439659193624,39.93908831230159,海淀,101112806378,15000000.0,104844,High,143.07,Flat,Tower,Steel/Concrete,Hardcover,Yes,2000,3,2,1,2
250,beijing,宣颐家园,116.45906882044405,39.81721176110026,大兴,101112836575,6190000.0,48806,Middle,126.83,Flat,Plate,Mixed,Simplicity,Yes,2001,3,2,1,2
251,beijing,金鱼池东区,116.41730300406313,39.8960114757828,东城,101112841699,7000000.0,96194,Middle,72.77,Flat,Plate,Steel/Concrete,Simplicity,No,2002,2,1,1,1
252,beijing,洋桥北里,116.38784999181583,39.86879005255794,丰台,101112852768,4090000.0,61137,Low,66.9,Flat,Plate,Mixed,Hardcover,No,1990,3,1,1,1
253,beijing,安慧里四区,116.41929418805655,39.99693547177334,朝阳,101112791204,6900000.0,85630,High,80.58,Flat,Tower,Steel/Concrete,Hardcover,Yes,1989,3,1,1,1
254,beijing,烟树园,116.28605787413882,39.96883670112172,海淀,101112804176,7900000.0,105306,First Floor ,75.02,Flat,Tower,Steel/Concrete,Hardcover,Yes,2003,2,1,1,1
255,beijing,荟康苑,116.59112044905523,39.924145386416775,朝阳,101112797437,3430000.0,50117,First Floor ,68.44,Flat,Plate,Brick/Concrete,Simplicity,No,1996,2,1,1,1
256,beijing,玉海园二里,116.26066493330497,39.92606438911374,海淀,101112804197,5790000.0,71482,High,81,Flat,Plate & Tower,Steel/Concrete,Simplicity,Yes,1997,2,1,1,1
257,beijing,观林园,116.37848749246864,40.04711803974313,海淀,101112791277,12800000.0,91968,Low,139.18,Flat,Plate,Steel/Concrete,Hardcover,Yes,2011,3,1,1,2
258,beijing,鹏润家园,116.35350588572781,39.875702866576596,丰台,101112812705,7100000.0,69882,High,101.6,Flat,Tower,Steel/Concrete,Hardcover,Yes,2001,2,1,1,2
259,beijing,水仙园,116.70042096350682,39.92028909567151,通州,101112800518,5990000.0,45659,High,131.19,Flat,Plate,Mixed,Hardcover,No,2000,3,2,1,2
260,beijing,海户西里,116.39676520418857,39.85736004780381,丰台,101112813590,3660000.0,56877,First Floor ,64.35,Flat,Plate,Mixed,Hardcover,No,1988,2,1,1,1
261,beijing,安慧里一区,116.42058011239409,39.99932920867382,朝阳,101112827405,6080000.0,92938,Middle,65.42,Flat,Tower,Steel/Concrete,Simplicity,Yes,1990,2,2,1,1
262,beijing,首座御园一期,116.37346102398756,39.75042906719188,大兴,101112835179,3250000.0,42495,Middle,76.48,Flat,Plate,Steel/Concrete,Simplicity,Yes,2013,2,2,1,1
263,beijing,南沙滩小区,116.3840439612006,40.00649505910196,朝阳,101112828944,4060000.0,73886,Middle,54.95,Flat,Plate,Mixed,Simplicity,No,1984,2,1,1,1
264,beijing,田村29号院,116.38943666883812,39.975816265765076,海淀,101112822606,4680000.0,83468,Middle,56.07,Flat,Plate,Mixed,Simplicity,No,1982,2,1,1,1
265,beijing,国美第一城3号院,116.52147051100017,39.93969283176998,朝阳,101112837420,7100000.0,71914,Middle,98.73,Flat,Plate & Tower,Steel/Concrete,Hardcover,Yes,2007,2,1,1,2
266,beijing,金地格林小镇,116.50235196466186,39.79911606499281,亦庄开发区,101112816302,10800000.0,67307,First Floor ,160.46,Flat,Plate,Mixed,Simplicity,No,2003,3,1,1,2
267,beijing,郁花园一里,116.34483400365667,39.78059608904561,大兴,101112829099,4200000.0,46409,Middle,90.5,Flat,Plate,Mixed,Other,No,1996,3,2,1,1
268,beijing,疃里庄园,116.70225701013867,39.9519830761006,通州,101112801940,3580000.0,34154,First Floor ,104.82,Flat,Plate,Mixed,Hardcover,No,1993,3,2,1,1
269,beijing,天通西苑三区,116.41581621861357,40.08336605392773,昌平,101112832999,4560000.0,36930,Middle,123.48,Flat,Plate,Mixed,Hardcover,Yes,2003,2,2,1,2
270,beijing,百万庄大街21号院,116.35314395843783,39.93437485357191,西城,101112836835,14000000.0,148180,Middle,94.48,Flat,Plate & Tower,Steel/Concrete,Hardcover,Yes,2012,3,1,1,1
271,beijing,海户西里,116.39676520418857,39.85736004780381,丰台,101112856720,4500000.0,55419,Low,81.2,Flat,Plate & Tower,Steel/Concrete,Simplicity,Yes,1993,3,1,1,1
272,beijing,王致和腐乳厂宿舍,116.25327699929926,39.93435804859573,海淀,101112851323,4900000.0,82078,Middle,59.7,Flat,Plate,Mixed,Simplicity,No,1994,2,1,1,1
273,beijing,玉海园一里,116.2616410320721,39.92706789284842,海淀,101112799112,6580000.0,93083,High,70.69,Flat,Tower,Steel/Concrete,Hardcover,Yes,1998,2,1,1,1
274,beijing,农光里,116.47097262607896,39.888028772341514,朝阳,101112804148,5500000.0,65391,Middle,84.11,Flat,Tower,Steel/Concrete,Hardcover,Yes,1996,2,1,1,1
275,beijing,梵谷水郡,116.51334839190116,39.96659409713264,朝阳,101112856297,5690000.0,61801,Middle,92.07,Flat,Tower,Steel/Concrete,Hardcover,Yes,2005,3,1,1,1
276,beijing,丽港美度,116.46704721066148,39.99481436752819,朝阳,101112817965,8650000.0,85568,Low,101.09,Flat,Plate,Steel/Concrete,Hardcover,No,2006,2,2,1,2
277,beijing,南海家园六里,116.50126483533369,39.76620699966685,大兴,101112826972,4600000.0,46381,Middle,99.18,Flat,Plate,Steel/Concrete,Simplicity,Yes,2013,3,2,1,1
278,beijing,重兴园,116.23303063039317,39.89772950492702,石景山,101112814466,5750000.0,58614,Middle,98.1,Flat,Plate,Mixed,Simplicity,No,2003,2,1,1,1
279,beijing,天天家园,116.42449537695933,40.09320679799463,东城,101112840636,8500000.0,67941,Middle,125.11,Flat,Tower,Steel/Concrete,Hardcover,Yes,2002,2,1,1,1
280,beijing,韩庄子四里,116.29930177193353,39.8443417665784,丰台,101112802168,2680000.0,50282,High,53.3,Flat,Plate,Mixed,Simplicity,No,1992,2,1,1,1
281,beijing,双兴北区,116.66092121260537,40.14752761731012,顺义,101112850840,3700000.0,39581,High,93.48,Flat,Plate & Tower,Steel/Concrete,Hardcover,Yes,2005,2,1,1,1
282,beijing,壹线国际,116.51027708536255,39.9150162224772,朝阳,101112808500,4950000.0,60066,Low,82.41,Flat,Plate,Steel/Concrete,Hardcover,Yes,2008,2,1,1,1
283,beijing,金宝城北区,116.67005365591146,40.183796360231625,顺义,101112812678,3360000.0,35295,Low,95.2,Flat,Plate,Steel/Concrete,Hardcover,Yes,2014,2,2,1,1
284,beijing,松榆西里,116.47203298590294,39.88113008384472,朝阳,101112814640,3250000.0,58370,Top ,55.68,Flat,Plate,Mixed,Simplicity,No,1992,2,1,1,1
285,beijing,建工家园,116.48926679745078,39.87070508062296,朝阳,101112806959,7050000.0,60693,Low,116.16,Flat,Plate,Steel/Concrete,Hardcover,Yes,2008,2,2,1,2
286,beijing,天通苑中苑,116.43371495589989,40.07866407586977,昌平,101112852273,7480000.0,36754,Middle,203.52,Flat,Plate,Steel/Concrete,Hardcover,Yes,2008,3,2,1,2
287,beijing,北苑家园茉藜园,116.4305310018503,40.04557204907456,朝阳,101112807554,7650000.0,58707,High,130.31,Flat,Plate & Tower,Steel/Concrete,Hardcover,Yes,2005,3,1,1,2
288,beijing,朝阳无限,116.51845103668948,39.924010096236984,朝阳,101112817706,4600000.0,69560,High,66.13,Flat,Plate & Tower,Steel/Concrete,Hardcover,Yes,2004,2,1,1,1
289,beijing,名都家苑,116.37898299778794,39.8450951101738,丰台,101112834313,7300000.0,80977,Low,90.15,Flat,Plate,Steel/Concrete,Hardcover,Yes,2005,2,2,1,1
290,beijing,马家堡33号院,116.38960393332407,39.86743991327043,丰台,101112827688,3300000.0,52885,First Floor ,62.4,Flat,Plate,Mixed,Simplicity,No,1980,2,1,1,1
291,beijing,紫南家园,116.50451427585493,39.88080451700213,朝阳,101112803237,7500000.0,56184,High,133.49,Duplex,Plate,Mixed,Hardcover,Yes,2001,4,1,1,2
292,beijing,诚苑南里,116.37953482686271,39.80942316121676,丰台,101112806634,3680000.0,43727,High,84.16,Flat,Plate & Tower,Steel/Concrete,Hardcover,Yes,2009,2,1,1,1
293,beijing,馨岛苑,116.60680935478699,39.92006048639967,朝阳,101112813274,4300000.0,48364,High,88.91,Flat,Plate & Tower,Steel/Concrete,Hardcover,Yes,2008,2,1,1,1
294,beijing,静源居,116.30602253443698,39.91735433054075,海淀,101112838854,10600000.0,98936,Low,107.14,Flat,Tower,Steel/Concrete,Hardcover,Yes,2002,2,1,1,1
295,beijing,苹果园小区四区,116.18769800215433,39.93359504297107,石景山,101112853440,4690000.0,48702,High,96.3,Flat,Tower,Steel/Concrete,Simplicity,Yes,2001,2,2,1,1
296,beijing,富力华庭苑西区,116.31762441958999,39.637347973393204,大兴,101112838705,2680000.0,30150,Low,88.89,Flat,Tower,Steel/Concrete,Hardcover,Yes,2013,2,1,1,1
297,beijing,富力尚悦居,116.5943912692476,39.77770478925122,通州,101112808812,4160000.0,37064,Middle,112.24,Flat,Plate,Steel/Concrete,Hardcover,Yes,2015,3,1,1,1
298,beijing,金宸国际公寓,116.36815006215146,39.918758540201026,西城,101112799418,36500000.0,151478,High,240.96,Flat,Plate,,Simplicity,Yes,2003,4,2,1,3
299,beijing,南厂东区,116.13410078356262,40.251646306655864,昌平,101112832745,1790000.0,25071,High,71.4,Flat,Plate,Mixed,Hardcover,No,1988,3,1,1,1
300,beijing,沿海赛洛城三期,116.51247802369254,39.90095737807237,朝阳,101112810285,6750000.0,66359,High,101.72,Flat,Plate,Steel/Concrete,Hardcover,Yes,2007,2,2,1,2
301,beijing,天通苑北三区,116.44012625215514,40.08296368870586,昌平,101112838556,5580000.0,44730,Middle,124.75,Flat,Plate,Mixed,Hardcover,No,2004,3,1,1,1
302,beijing,圆明园花园别墅,116.29706076917778,40.027168166471036,海淀,101112831115,11980000.0,85762,Low,139.69,Flat,Plate,Mixed,Hardcover,No,2000,4,2,1,2
303,beijing,新景家园西区,116.42866522130609,39.90240987444565,东城,101112842800,12800000.0,109966,Middle,116.4,Flat,Plate & Tower,Steel/Concrete,Hardcover,Yes,2001,3,1,1,2
304,beijing,金帝花园,116.33694607280411,39.75888460896606,朝阳,101112842100,9700000.0,81329,Middle,119.27,Flat,Plate & Tower,Steel/Concrete,Hardcover,Yes,1997,3,1,1,2
305,beijing,德茂佳苑,116.44536714616144,39.783174124384516,大兴,101112730304,2700000.0,38771,Middle,69.64,Flat,Plate,Mixed,Simplicity,No,2003,1,1,1,1
306,beijing,绿城百合公寓春晓苑,116.08006698849303,39.71723207216384,房山,101112595711,3050000.0,17646,Top ,172.85,Duplex,Plate,Mixed,Hardcover,No,2006,4,2,1,2
307,beijing,万科中粮假日风景,116.25641774485378,39.87280528493912,丰台,101112566418,10000000.0,87936,First Floor ,113.72,Duplex,Plate,Steel/Concrete,Hardcover,Yes,2008,2,2,1,2
308,beijing,中堂,116.28494307700093,39.88899622974002,丰台,101112534608,15450000.0,78574,Middle,196.63,Flat,Plate,Steel/Concrete,Hardcover,Yes,2011,4,2,1,3
309,beijing,时代庄园,116.44087103725346,40.04650108378878,朝阳,101112541355,13800000.0,87781,First Floor ,157.21,Duplex,Plate,Mixed,Hardcover,No,2002,3,2,1,2
310,beijing,远洋山水,116.24659297749116,39.90677506436785,石景山,101103938469,8980000.0,65097,Middle,137.95,Flat,Plate & Tower,Steel/Concrete,Simplicity,Yes,2005,3,1,1,2
311,beijing,美丽园,116.28585530624633,39.94262566364006,海淀,101112657681,27000000.0,107245,Top ,251.76,Duplex,Plate,Steel/Concrete,Hardcover,Yes,2000,6,3,1,2
313,beijing,龙潭北里,116.44652847552476,39.887913340883145,东城,101112588799,16200000.0,97886,Middle,165.5,Flat,Tower,Steel/Concrete,Hardcover,No,2000,4,1,1,2
314,beijing,映天朗,116.43674997089589,39.85832805723297,丰台,101112600183,9850000.0,69523,Middle,141.68,Flat,Plate,Steel/Concrete,Hardcover,Yes,2007,3,1,1,2
315,beijing,珠江帝景博悦,116.48976275192283,39.8935543052128,朝阳,101112687078,17500000.0,108696,High,161,Flat,Plate,Steel/Concrete,Hardcover,Yes,2008,3,2,1,3
316,beijing,宝星园一区,116.4865092690268,40.00681670768078,朝阳,101112680581,13990000.0,63563,Low,220.1,Flat,Plate & Tower,Steel/Concrete,Hardcover,Yes,2003,4,2,1,2
317,beijing,澳洲康都,116.46524547930011,40.01863796007548,朝阳,101112590912,15200000.0,77702,Low,195.62,Flat,Plate,Steel/Concrete,Hardcover,Yes,2006,4,2,1,2
318,beijing,臻园,116.47107530239875,40.025176329500354,朝阳,101112693277,24500000.0,113843,Low,215.21,Flat,Plate,Steel/Concrete,Hardcover,Yes,2016,4,2,1,3
320,beijing,融科橄榄城一期,116.49227055141503,40.0046643411514,朝阳,101112534607,15980000.0,120969,Middle,132.1,Flat,Plate & Tower,Steel/Concrete,Hardcover,Yes,2006,3,2,1,2
321,beijing,富贵园一区,116.43982397235102,39.90249719067785,东城,101112604208,18800000.0,129388,Low,145.3,Flat,Plate,Steel/Concrete,Hardcover,Yes,2004,3,2,1,2
322,beijing,首城国际C区,116.47775168861001,39.89641550611473,朝阳,101112623195,14990000.0,103903,Low,144.27,Flat,Plate,Steel/Concrete,Hardcover,Yes,2011,3,1,1,2
323,beijing,碧森里,116.25650622794653,39.93943012716249,海淀,101112559859,11500000.0,73808,High,155.81,Duplex,Plate,Steel/Concrete,Simplicity,Yes,2004,4,2,1,2
324,beijing,西绒线,116.38519776366203,39.91049111746923,西城,101112791088,7500000.0,143816,Middle,52.15,Flat,Plate,Steel/Concrete,Hardcover,No,2004,1,1,1,1
325,beijing,马家堡西里,116.38072103928864,39.85883761510765,丰台,101112800645,4380000.0,56751,Low,77.18,Flat,Plate & Tower,Steel/Concrete,Simplicity,Yes,1998,2,1,1,1
326,beijing,小康东里,116.5280762005678,39.827278197019666,大兴,101112763746,3480000.0,45586,First Floor ,76.34,Flat,Plate,Mixed,Simplicity,No,2003,2,1,1,1
327,beijing,定慧东里,116.29274396204958,39.9286480578313,海淀,101112835624,6600000.0,102965,Low,64.1,Flat,Plate,Mixed,Simplicity,No,1990,2,1,1,1
328,beijing,北苑家园望春园,116.42541317569886,40.05288640224027,朝阳,101112840406,5560000.0,66627,Low,83.45,Flat,Tower,Steel/Concrete,Hardcover,Yes,2007,2,1,1,1
329,beijing,广安﹒康馨家园,116.64119101004532,40.31949700439593,丰台,101112814431,3800000.0,53155,Low,71.49,Flat,Plate,Steel/Concrete,Hardcover,Yes,2015,2,1,1,1
330,beijing,三里河三区,116.34533301236748,39.91543404414209,西城,101112820747,7500000.0,155602,Middle,48.2,Flat,Plate,Mixed,Simplicity,No,1985,2,1,1,1
331,beijing,澳林春天四期,116.38072696810501,40.0182600749986,朝阳,101104510698,26880000.0,95802,High,280.58,Duplex,Plate,Steel/Concrete,Hardcover,Yes,2004,5,4,1,4
332,beijing,金融街融汇,116.64719528407402,39.922344884454276,大兴,101112591731,3420000.0,41871,Low,81.68,Flat,Plate & Tower,Steel/Concrete,Hardcover,Yes,2014,2,1,1,1
333,beijing,万方家园,116.58793892043053,39.92351845664808,通州,101112599084,4900000.0,64070,High,76.48,Flat,Plate,Steel/Concrete,Hardcover,Yes,2015,2,1,1,1
334,beijing,芳群园一区,116.43032007971658,39.870013973871714,丰台,101112626360,6100000.0,80720,First Floor ,75.57,Flat,Plate,Mixed,Simplicity,No,1992,3,1,1,1
335,beijing,华纺易城,116.5225430877791,39.9373172508755,朝阳,101112608068,7950000.0,89760,Low,88.57,Flat,Plate & Tower,Steel/Concrete,Simplicity,Yes,2005,2,1,1,1
336,beijing,首座御园一区二期,116.37346102398756,39.75042906719188,大兴,101112610099,4090000.0,34877,Middle,117.27,Flat,Plate & Tower,Steel/Concrete,Hardcover,Yes,2015,3,1,1,2
337,beijing,蓝堡国际公寓,116.48286628086161,39.916976779958205,朝阳,101112505465,12600000.0,92839,Middle,135.72,Flat,Plate & Tower,Steel/Concrete,Hardcover,Yes,2004,2,2,1,2
338,beijing,保利罗兰香谷,116.26993724277895,40.12615019762974,昌平,101112626565,5150000.0,56426,Middle,91.27,Flat,Plate,Steel/Concrete,Other,Yes,2012,3,1,1,1
339,beijing,华业东方玫瑰C区,116.69081726913019,39.88331938349712,通州,101112576286,4890000.0,53725,Middle,91.02,Flat,Plate & Tower,Steel/Concrete,Hardcover,Yes,2016,2,1,1,1
340,beijing,紫芳园一区,116.45089046742011,39.8701405803912,丰台,101112613028,5390000.0,74448,Middle,72.4,Flat,Tower,Steel/Concrete,Simplicity,Yes,2000,2,1,1,1
341,beijing,延静东里,116.49511144259034,39.92805194703695,朝阳,101112517837,5490000.0,61534,Middle,89.22,Flat,Tower,Steel/Concrete,Simplicity,Yes,1998,2,1,1,1
342,beijing,翠成馨园E区,116.51155438596717,39.86258904832325,朝阳,101112551518,4300000.0,52065,Low,82.59,Flat,Tower,Steel/Concrete,Simplicity,Yes,2009,2,1,1,1
343,beijing,时代龙和,116.34902370055522,39.74284034264927,大兴,101112562829,6800000.0,41245,First Floor ,164.87,Duplex,Plate & Tower,Steel/Concrete,Rough,Yes,2007,3,2,1,2
344,beijing,台湖银河湾,116.59467396599159,39.820298051551916,通州,101112650463,5360000.0,66527,Middle,80.57,Flat,Plate,Steel/Concrete,Hardcover,Yes,2016,3,2,1,1
345,beijing,天通苑本六区,116.43166098035131,40.07223108683541,昌平,101112628336,4550000.0,39470,Middle,115.28,Flat,Plate,Mixed,Hardcover,No,2001,2,1,1,1
346,beijing,芳群园一区,116.43032007971658,39.870013973871714,丰台,101112578269,2580000.0,60864,Low,42.39,Flat,Tower,Steel/Concrete,Simplicity,Yes,1990,1,1,1,1
347,beijing,保利春天里,116.32841199079822,39.678398555249,大兴,101112631600,3390000.0,40010,Low,84.73,Flat,Plate,Steel/Concrete,Hardcover,Yes,2014,2,1,1,1
348,beijing,马家堡西里,116.38072103928864,39.85883761510765,丰台,101112633847,4800000.0,63092,High,76.08,Flat,Tower,Steel/Concrete,Other,Yes,1995,3,1,1,1
349,beijing,国际港,116.46511495550949,39.96415510162696,朝阳,101112549916,7600000.0,64407,High,118,Flat,Plate & Tower,Steel/Concrete,Hardcover,Yes,2002,2,1,1,1
350,beijing,百合湾,116.69698997544201,39.91877223629026,通州,101112641769,5980000.0,72600,Middle,82.37,Flat,Plate & Tower,Steel/Concrete,Hardcover,Yes,2013,2,1,1,1
351,beijing,圣馨大地,116.46919002862496,40.00056342246478,朝阳,101112520734,8660000.0,73967,High,117.08,Flat,Tower,Steel/Concrete,Hardcover,Yes,2001,2,1,1,1
352,beijing,逸秀名园,116.65114513340139,39.914514487205324,通州,101112613679,4250000.0,42243,Low,100.61,Flat,Plate,Steel/Concrete,Simplicity,Yes,2004,2,1,1,1
353,beijing,彩虹城三区,116.42607971838727,39.84452880486406,丰台,101112570194,8560000.0,59400,Low,144.11,Flat,Plate,Steel/Concrete,Simplicity,Yes,2005,4,1,1,2
354,beijing,富强东里,116.3471820844292,39.74678602146467,大兴,101112671512,1890000.0,35394,Top ,53.4,Flat,Plate,Mixed,Simplicity,No,1990,2,1,1,1
355,beijing,金蝉南里,116.50904514918615,39.868721314058604,朝阳,101112673362,3300000.0,59268,Middle,55.68,Flat,Tower,Steel/Concrete,Hardcover,Yes,2007,1,1,1,1
356,beijing,农光里,116.47097262607896,39.888028772341514,朝阳,101112576050,4200000.0,68617,Low,61.21,Flat,Plate & Tower,Steel/Concrete,Simplicity,No,1999,2,1,1,1
357,beijing,恒盛小镇艺墅,116.64605057336266,39.6571344319193,大兴,101112636490,2250000.0,25293,Middle,88.96,Flat,Plate,Steel/Concrete,Hardcover,Yes,2004,2,1,1,1
358,beijing,恋日绿岛,116.48430437815254,39.832594096182845,朝阳,101112617376,9000000.0,62371,First Floor ,144.3,Flat,Plate,Mixed,Simplicity,No,2003,3,2,1,2
359,beijing,秀水园,116.48227762126093,39.93471890515338,朝阳,101112581709,4150000.0,67557,Low,61.43,Flat,Plate,Steel/Concrete,Hardcover,Yes,1994,2,1,1,1
360,beijing,大红门东门里,116.40579175793607,39.84464694133224,丰台,101112591180,3250000.0,49558,Middle,65.58,Flat,Plate,Mixed,Simplicity,No,1978,3,1,1,1
361,beijing,北京新天地三期,116.61284381188081,39.91996025776528,朝阳,101112657230,3700000.0,59832,Middle,61.84,Flat,Plate & Tower,Steel/Concrete,Hardcover,Yes,2009,1,1,1,1
362,beijing,北京新天地二期,116.61142314171677,39.92093424694714,朝阳,101112612244,5800000.0,59100,Low,98.14,Flat,Plate & Tower,Steel/Concrete,Hardcover,Yes,2008,2,1,1,1
363,beijing,样本,116.55042271792567,39.755848583499876,通州,101112658166,6300000.0,44647,First Floor ,141.11,Flat,Plate,Steel/Concrete,Hardcover,No,2006,3,2,1,2
364,beijing,小铁匠营,116.42758824283017,39.86235020670643,丰台,101112654455,2700000.0,53925,Middle,50.07,Flat,Plate,Mixed,Simplicity,No,1975,2,1,1,1
365,beijing,劲松二区,116.46084297382626,39.89153909612594,朝阳,101112578524,3690000.0,62490,Low,59.05,Flat,Plate,Mixed,Simplicity,No,1977,2,1,1,1
366,beijing,万方家园,116.58793892043053,39.92351845664808,通州,101112530368,5990000.0,65522,High,91.42,Flat,Plate,Steel/Concrete,Hardcover,Yes,2015,2,1,1,1
367,beijing,六合园,116.22589044545389,39.90440209955599,石景山,101112657171,3350000.0,53755,Middle,62.32,Flat,Plate,Mixed,Simplicity,No,1995,2,1,1,1
368,beijing,首座御园一区二期,116.37346102398756,39.75042906719188,大兴,101112675167,3060000.0,32276,First Floor ,94.81,Flat,Plate & Tower,Steel/Concrete,Hardcover,Yes,2015,2,1,1,1
369,beijing,酷特区,116.51484047735323,39.93583922184007,朝阳,101112625195,4450000.0,72559,Low,61.33,Flat,Plate & Tower,Steel/Concrete,Hardcover,Yes,2006,1,1,1,1
370,beijing,华威西里,116.46183847599241,39.878998021823776,朝阳,101112612292,3480000.0,58049,First Floor ,59.95,Flat,Tower,Steel/Concrete,Simplicity,Yes,1990,2,1,1,1
371,beijing,金地名京,116.50366528731746,39.91619877565023,朝阳,101112601245,8300000.0,92521,Low,89.71,Flat,Tower,Steel/Concrete,Hardcover,Yes,2010,2,1,1,1
372,beijing,美景东方,116.47709664423213,39.87562963601552,朝阳,101112599956,7100000.0,81218,Low,87.42,Flat,Plate & Tower,Steel/Concrete,Hardcover,Yes,2012,2,1,1,1
373,beijing,西坝河东里,116.45379172472568,39.97338306213093,朝阳,101112639850,4460000.0,76871,Top ,58.02,Flat,Plate,Mixed,Simplicity,No,1985,2,1,1,1
374,beijing,酒仙桥三街坊,116.50678348540369,39.9694833264895,朝阳,101112662726,3250000.0,59481,Low,54.64,Flat,Plate,Mixed,Simplicity,No,1992,2,1,1,1
375,beijing,首开熙悦山熹园3号院,116.22141419269089,39.774637852291754,房山,101112618758,4470000.0,44634,Top ,100.15,Flat,Plate,Steel/Concrete,Hardcover,Yes,2013,3,1,1,2
376,beijing,天通西苑三区,116.41581621861357,40.08336605392773,昌平,101112518261,5650000.0,34212,Middle,165.15,Flat,Tower,Mixed,Hardcover,Yes,2003,3,2,1,2
377,beijing,久筑物业,116.48256885190727,39.87428863068945,石景山,101112546236,3690000.0,50191,High,73.52,Flat,Plate & Tower,Steel/Concrete,Hardcover,Yes,1996,2,1,1,1
378,beijing,蓝桥驿苑,117.28016433314419,40.65559643990614,大兴,101112533391,2350000.0,29197,High,80.49,Flat,Plate,Steel/Concrete,Simplicity,Yes,2014,2,1,1,1
379,beijing,恩济庄96号院,116.29153196825553,39.93312083131205,海淀,101112627933,6980000.0,87382,Middle,79.88,Flat,Plate,Mixed,Hardcover,No,1998,2,2,1,1
380,beijing,东大街,116.64331397545705,40.32236234424842,丰台,101112536201,6500000.0,72247,High,89.97,Flat,Plate,Steel/Concrete,Hardcover,Unknown,2001,3,1,1,1
381,beijing,静安里,116.45124251334947,39.96498723448301,朝阳,101112578542,3600000.0,69178,Low,52.04,Flat,Plate,Mixed,Simplicity,No,1981,2,1,1,1
382,beijing,建兴家园,116.3424770296596,39.73019905851717,大兴,101112564286,4180000.0,46419,Middle,90.05,Flat,Plate,Mixed,Simplicity,No,2002,2,1,1,1
383,beijing,富力又一城A区,116.57255364196112,39.85307052658762,朝阳,101112528343,7500000.0,53895,Middle,139.16,Flat,Plate,Steel/Concrete,Hardcover,Yes,2007,3,2,1,2
384,beijing,京宝花园,116.41341055645785,39.95960445805671,东城,101112662911,10500000.0,71342,Low,147.18,Flat,Plate,Steel/Concrete,Simplicity,Yes,1994,3,1,1,2
385,beijing,富卓苑,116.3823957502509,39.84415618198873,丰台,101112533010,4600000.0,62121,First Floor ,74.05,Flat,Plate,Mixed,Simplicity,No,2001,2,1,1,1
386,beijing,东安街头条1号院,116.28778540546506,39.8565463055248,丰台,101112649400,4790000.0,81881,Middle,58.5,Flat,Plate,Mixed,Simplicity,No,1981,2,1,1,1
387,beijing,和平街十五区2号院,116.43733512710509,39.971044671507975,朝阳,101112527088,6680000.0,71444,Low,93.5,Flat,Tower,Steel/Concrete,Simplicity,Yes,1997,3,1,1,1
388,beijing,香悦四季,116.66267012360275,40.186692162655376,顺义,101112566056,5590000.0,40786,Top ,137.06,Flat,Plate,Steel/Concrete,Hardcover,Yes,2011,4,2,1,2
389,beijing,京贸国际城,116.69099001327976,39.92485710792502,通州,101112559318,5300000.0,57848,High,91.62,Flat,Plate & Tower,Steel/Concrete,Simplicity,Yes,2011,2,1,1,1
390,beijing,双合家园,116.40870604067155,40.0897760414017,朝阳,101112535811,4290000.0,47752,Middle,89.84,Flat,Plate,Steel/Concrete,Hardcover,Yes,2013,3,1,1,1
391,beijing,益城园,116.37310188144467,39.83939687249272,丰台,101112657363,7680000.0,73444,High,104.57,Flat,Plate,Steel/Concrete,Hardcover,Yes,2003,2,2,1,1
392,beijing,燕化星城建德一里,116.07309299366631,39.718929704853146,房山,101112567847,1790000.0,26340,Middle,67.96,Flat,Plate,Mixed,Hardcover,No,1995,2,1,1,1
393,beijing,金地格林格林,116.66107850590018,39.95716590254813,通州,101112540737,3550000.0,39839,Low,89.11,Flat,Plate,Steel/Concrete,Simplicity,Yes,2013,3,1,1,1
394,beijing,国瑞城中区,116.43058445102815,39.905126242351,东城,101112588029,7490000.0,102645,Middle,72.97,Flat,Tower,Steel/Concrete,Hardcover,Yes,2006,2,1,1,1
395,beijing,京汉旭城,116.23488482279632,39.89715637207486,石景山,101112530998,5990000.0,66298,Low,90.35,Flat,Plate,Steel/Concrete,Simplicity,Yes,2004,2,2,1,1
396,beijing,北街家园二区,116.28357280177603,39.638007264367545,昌平,101112578995,6100000.0,41673,High,146.38,Flat,Plate,Steel/Concrete,Hardcover,Yes,2008,3,2,1,2
397,beijing,农光里,116.47097262607896,39.888028772341514,朝阳,101112646844,4000000.0,62016,Low,64.5,Flat,Plate,Steel/Concrete,Hardcover,Yes,1991,2,1,1,1
398,beijing,武圣西里,116.47237146741911,39.884051671998336,朝阳,101112528328,3060000.0,56096,Top ,54.55,Flat,Plate,Mixed,Simplicity,No,1997,2,1,1,1
399,beijing,拂林园,116.42285255584267,40.0347209509003,朝阳,101112691623,8950000.0,64607,Low,138.53,Flat,Plate & Tower,Steel/Concrete,Hardcover,Yes,2002,2,2,1,2
400,beijing,百旺家苑,116.27535779788728,40.035286293337194,海淀,101112528226,12800000.0,97014,Middle,131.94,Flat,Plate,Mixed,Hardcover,No,2003,3,2,1,2
401,beijing,柳芳北里,116.44263198554466,39.961465012669464,朝阳,101112652208,4300000.0,75320,Middle,57.09,Flat,Plate,Mixed,Simplicity,No,1984,2,1,1,1
402,beijing,DBC加州小镇C区,116.68976634151409,39.87055701657621,通州,101112603143,4360000.0,43561,Middle,100.09,Flat,Plate,Steel/Concrete,Hardcover,Yes,2010,2,1,1,1
403,beijing,海特花园小区,116.19527224472282,39.93902413970611,石景山,101112548236,5450000.0,51030,Low,106.8,Flat,Tower,Steel/Concrete,Hardcover,Yes,1995,3,1,1,2
404,beijing,鑫苑鑫都汇,116.3271399901961,39.69510307840096,大兴,101112629947,3350000.0,42203,Low,79.38,Flat,Plate,Steel/Concrete,Hardcover,Yes,2015,2,1,1,1
405,beijing,柳芳北街9号院,116.43927097547909,39.96632831696377,朝阳,101112579523,5190000.0,81939,High,63.34,Flat,Tower,Steel/Concrete,Simplicity,Yes,1997,2,1,1,1
406,beijing,月季园,116.11714203316193,39.93340306268382,通州,101112586470,4080000.0,47327,First Floor ,86.21,Flat,Tower,Steel/Concrete,Simplicity,Yes,2009,2,1,1,1
407,beijing,金色漫香林二期,116.52729602223238,39.82953405899873,大兴,101112605991,4630000.0,51703,High,89.55,Flat,Plate,Steel/Concrete,Hardcover,Yes,2010,2,1,1,1
408,beijing,加州水郡四期,116.17806421454313,39.77319982073812,房山,101112640318,3020000.0,33165,High,91.06,Flat,Plate & Tower,Steel/Concrete,Simplicity,Yes,2011,3,1,1,1
409,beijing,海户西里,116.39676520418857,39.85736004780381,丰台,101112599816,3490000.0,57120,Middle,61.1,Flat,Plate & Tower,Steel/Concrete,Simplicity,Yes,1993,2,1,1,1
410,beijing,汤泉墅,116.16062424188077,39.79773363881476,丰台,101112655984,4620000.0,34363,Low,134.45,Flat,Plate,Mixed,Hardcover,Yes,2013,3,2,1,2
411,beijing,彩虹新城,116.34198098535698,39.754378121596766,大兴,101112542420,3810000.0,47294,Low,80.56,Flat,Plate & Tower,Steel/Concrete,Hardcover,Yes,2009,2,1,1,1
412,beijing,广安﹒康馨家园,116.64119101004532,40.31949700439593,丰台,101112566203,3700000.0,49288,Low,75.07,Flat,Plate & Tower,Steel/Concrete,Simplicity,Yes,2015,2,1,1,1
413,beijing,首开国风美唐二期,116.36684096153176,40.08549404374912,昌平,101112648920,9960000.0,70166,Middle,141.95,Flat,Plate,Steel/Concrete,Rough,Yes,2014,4,2,2,1
414,beijing,六场宿舍,116.22444920768689,39.908861633077954,石景山,101112557811,2880000.0,51392,High,56.04,Flat,Plate,Mixed,Simplicity,No,1988,2,1,1,1
415,beijing,BOBO自由城,116.70044764318047,39.91463568431796,通州,101112629732,8310000.0,68043,First Floor ,122.13,Split-Level,Plate,Mixed,Hardcover,No,2005,3,2,1,2
416,beijing,蒲黄榆二里,116.42551405540765,39.87645787045035,丰台,101112542091,3250000.0,59405,Middle,54.71,Flat,Tower,Steel/Concrete,Other,Yes,1985,2,1,1,1
417,beijing,曙光里,116.45855301342023,39.97149705326099,朝阳,101112560133,4500000.0,75453,First Floor ,59.64,Flat,Plate,Mixed,Simplicity,No,1999,2,1,1,1
418,beijing,格林云墅,116.40767101306294,39.71436507938352,大兴,101112557578,4380000.0,31473,Top ,139.17,Duplex,Plate,Steel/Concrete,Rough,Yes,2015,4,1,1,2
419,beijing,新华联家园南区,116.64643594642644,39.896291647097065,通州,101112567706,3990000.0,42407,First Floor ,94.09,Flat,Plate,Mixed,Hardcover,No,2002,2,1,1,1
420,beijing,首开康乃馨城,116.31834656738947,39.75430337383165,大兴,101112543681,3390000.0,38159,High,88.84,Flat,Plate,Steel/Concrete,Simplicity,Yes,2012,2,1,1,1
421,beijing,国美第一城2号院,116.51820939250729,39.94012184232057,朝阳,101112581743,5300000.0,68335,Low,77.56,Flat,Tower,Steel/Concrete,Hardcover,Yes,2006,2,1,1,1
422,beijing,长滩壹号,116.28051703592271,40.203228073192406,昌平,101112688031,5190000.0,48811,Middle,106.33,Flat,Plate,Steel/Concrete,Hardcover,Yes,2013,3,1,1,1
423,beijing,天通苑东二区,116.44587639555506,40.074105043223284,昌平,101112579459,5250000.0,39722,Middle,132.17,Flat,Plate,Mixed,Hardcover,No,2001,3,1,1,2
424,beijing,东亚朗悦居,116.0661517869907,39.7216818338417,房山,101112625768,1880000.0,24760,First Floor ,75.93,Flat,Plate,Steel/Concrete,Hardcover,Yes,2016,2,2,1,1
425,beijing,光熙门北里,116.44125407472292,39.97287933901937,朝阳,101112581420,4350000.0,73754,High,58.98,Flat,Tower,Steel/Concrete,Hardcover,Yes,1992,2,1,1,1
426,beijing,金隅泰和园,116.53798208491799,39.92659951456461,朝阳,101112526583,4800000.0,64223,Low,74.74,Flat,Plate,Steel/Concrete,Hardcover,Yes,2013,2,1,1,1
427,beijing,罗庄南里,116.35214073084428,39.97813977104909,海淀,101112623265,8370000.0,113415,Middle,73.8,Flat,Plate,Mixed,Hardcover,No,1987,3,1,1,1
428,beijing,万泉河62号院,116.30999232614667,39.979591377171865,海淀,101112621270,12600000.0,143705,Middle,87.68,Flat,Plate & Tower,Steel/Concrete,Simplicity,Yes,2000,3,1,1,1
429,beijing,丰益花园西区,116.3146625266625,39.865452174849665,丰台,101112685701,5180000.0,67882,High,76.31,Flat,Tower,Steel/Concrete,Simplicity,Yes,2001,2,1,1,1
430,beijing,溪城家园,116.4069695262902,40.04922059109379,昌平,101112583990,4870000.0,57147,Middle,85.22,Flat,Plate,Steel/Concrete,Hardcover,Yes,2010,3,1,1,1
431,beijing,门头沟月季园,116.11714203316193,39.93340306268382,门头沟,101112539723,2980000.0,34648,Low,86.01,Flat,Plate,Mixed,Hardcover,No,1991,3,1,1,1
432,beijing,八里庄南里,116.50522959653252,39.927908572584656,朝阳,101112580244,3750000.0,61617,Low,60.86,Flat,Tower,Steel/Concrete,Hardcover,Yes,1988,2,1,1,1
433,beijing,金科天玺,116.43089795965115,40.18100006911717,昌平,101112650716,4550000.0,35898,High,126.75,Flat,Plate,Steel/Concrete,Hardcover,Yes,2013,3,1,1,2
434,beijing,首开香溪郡,116.67624899952213,40.01453008210408,通州,101112664503,3720000.0,35325,Middle,105.31,Flat,Plate,Steel/Concrete,Rough,Yes,2015,3,1,1,1
435,beijing,南湖渠三巷6号院,116.46250807291955,39.99636794349824,朝阳,101112662477,6300000.0,67015,High,94.01,Flat,Plate,Mixed,Simplicity,No,2000,3,1,1,1
436,beijing,季景沁园,116.4619274082379,40.00144347004279,朝阳,101112555975,9950000.0,84790,High,117.35,Flat,Plate & Tower,Steel/Concrete,Hardcover,Yes,2007,2,1,1,2
437,beijing,芳星园三区,116.44201008864012,39.86650011634015,丰台,101112547244,6350000.0,66064,Low,96.12,Flat,Plate & Tower,Steel/Concrete,Simplicity,Yes,1997,3,1,1,1
438,beijing,塔院小区,116.17347665813422,39.82200753253867,海淀,101112594031,8250000.0,103125,Low,80,Flat,Plate,Steel/Concrete,Simplicity,Yes,1991,3,1,1,1
439,beijing,国际花园4号院,116.1935509117046,39.77739952273035,房山,101112633436,3290000.0,36682,Low,89.69,Flat,Plate,Steel/Concrete,Rough,Yes,2014,3,1,1,1
440,beijing,东王庄,116.28139521938928,40.39781033960344,海淀,101112683841,9800000.0,106987,First Floor ,91.6,Flat,Plate,Mixed,Simplicity,No,1997,3,1,1,1
441,beijing,柳林馆,116.32352098678804,39.91637807644611,海淀,101112521897,5820000.0,122013,Middle,47.7,Flat,Plate,Mixed,Simplicity,No,1976,2,1,1,1
442,beijing,蒲安里,116.42558359413546,39.8697137080213,丰台,101112571598,3330000.0,57763,High,57.65,Flat,Plate,Mixed,Simplicity,No,1990,2,1,1,1
443,beijing,亦庄北岸,116.46994954593366,39.80312355670713,大兴,101112597240,5540000.0,50701,High,109.27,Flat,Plate & Tower,Steel/Concrete,Hardcover,Yes,2008,3,2,1,2
444,beijing,永乐东区,116.23924295197799,39.90624427977269,石景山,101112538106,3300000.0,49439,Low,66.75,Flat,Plate,Mixed,Simplicity,No,1981,3,1,1,1
445,beijing,北京新天地三期,116.61284381188081,39.91996025776528,朝阳,101112576878,5750000.0,64067,Middle,89.75,Flat,Plate & Tower,Steel/Concrete,Hardcover,Yes,2009,2,2,1,1
446,beijing,北三环中路34号院,116.37291296779591,39.972223069555184,海淀,101112693786,7600000.0,91347,First Floor ,83.2,Flat,Plate,Mixed,Hardcover,No,1956,4,1,1,1
447,beijing,山水汇豪苑B区,116.08040861407846,39.65554039832675,房山,101112639091,1900000.0,21870,High,86.88,Flat,Plate,Steel/Concrete,Other,Yes,2011,2,1,1,1
448,beijing,中海城香克林,116.4553104898514,39.84494574397001,朝阳,101112564243,4670000.0,70662,Middle,66.09,Flat,Plate,Steel/Concrete,Hardcover,Yes,2012,1,1,1,1
449,beijing,远洋万和城B区,116.4388993464896,39.99842992633678,朝阳,101112692122,19500000.0,111213,High,175.34,Flat,Plate,Steel/Concrete,Hardcover,Yes,2009,4,2,2,3
450,beijing,远洋德邑,116.45306364810985,39.90084646593686,东城,101112690176,6150000.0,94181,Top ,65.3,Flat,Plate & Tower,Steel/Concrete,Hardcover,Yes,2003,1,1,1,1
451,beijing,珠光逸景二期,116.18453102607891,39.84182206636424,丰台,101112534024,3000000.0,38305,High,78.32,Flat,Plate,Steel/Concrete,Hardcover,Yes,2014,2,2,1,1
452,beijing,天坛西里东区,116.40896439333622,39.88192807591433,东城,101112633934,4850000.0,97020,First Floor ,49.99,Flat,Plate,Mixed,Simplicity,No,1979,2,1,1,1
453,beijing,首开常青藤二期,116.54374597239219,39.96830405137201,朝阳,101112617578,7160000.0,77423,Middle,92.48,Flat,Plate,Steel/Concrete,Hardcover,Yes,2011,3,1,1,1
454,beijing,珠江国际城八区,116.68621156694999,39.937319048860616,通州,101112530357,6490000.0,43412,High,149.5,Split-Level,Plate,Steel/Concrete,Hardcover,Yes,2004,3,2,1,2
455,beijing,国美第一城2号院,116.51820939250729,39.94012184232057,朝阳,101112699741,8550000.0,60626,Middle,141.03,Flat,Plate & Tower,Steel/Concrete,Hardcover,Yes,2006,3,2,1,2
456,beijing,京投银泰万科西华府,116.31094237405402,39.818957895992675,丰台,101112691871,3350000.0,70453,Low,47.55,Flat,Plate,Steel/Concrete,Hardcover,Yes,2014,1,1,1,1
457,beijing,松榆里,116.47203298590294,39.88113008384472,朝阳,101112527288,3580000.0,65460,Middle,54.69,Flat,Plate,Mixed,Hardcover,No,1992,2,1,1,1
458,beijing,帅府园二期,116.6542197636704,39.912011358774784,通州,101112619487,5450000.0,63189,Middle,86.25,Flat,Plate,Steel/Concrete,Hardcover,Yes,2015,2,2,1,1
459,beijing,韩庄子四里,116.29930177193353,39.8443417665784,丰台,101112540752,2800000.0,50910,High,55,Flat,Plate,Mixed,Hardcover,No,1992,2,1,1,1
460,beijing,西马庄园,116.63650302308041,39.918474103622785,通州,101112692061,3150000.0,36981,Middle,85.18,Flat,Plate,Mixed,Hardcover,No,2001,2,1,2,1
461,beijing,益辰欣园,116.32139793154576,39.82963400534573,丰台,101112657467,7380000.0,52233,Low,141.29,Flat,Plate,Steel/Concrete,Hardcover,Yes,2002,3,2,1,2
462,beijing,加州水郡三期,116.17192699129896,39.77437208388243,房山,101112618215,2800000.0,30749,Middle,91.06,Flat,Tower,Steel/Concrete,Hardcover,Yes,2010,2,1,1,1
463,beijing,天通苑北一区,116.42363345282249,40.08074377094799,昌平,101112627626,5650000.0,41247,High,136.98,Flat,Plate,Steel/Concrete,Hardcover,Yes,2004,3,1,1,2
464,beijing,书香亭,116.4733711017906,39.87662066446705,朝阳,101112591695,5160000.0,60921,Low,84.7,Flat,Tower,Steel/Concrete,Hardcover,Yes,2002,2,1,1,1
465,beijing,富力阳光美园,116.61305697977832,39.933898088559005,朝阳,101112619655,4290000.0,56057,Middle,76.53,Flat,Tower,Steel/Concrete,Hardcover,Yes,2010,2,1,1,1
466,beijing,保利罗兰香谷,116.26993724277895,40.12615019762974,昌平,101112604365,4900000.0,53864,High,90.97,Flat,Plate,Steel/Concrete,Simplicity,Yes,2014,3,1,1,1
467,beijing,南开西里,116.2867539710785,39.84735509096793,丰台,101112578837,3600000.0,52137,Middle,69.05,Flat,Plate,Mixed,Hardcover,No,1992,3,1,1,1
468,beijing,万象新天四区,116.5979529607641,39.93239709370271,朝阳,101112601506,4560000.0,56158,Middle,81.2,Flat,Plate & Tower,Steel/Concrete,Hardcover,Yes,2005,2,1,1,1
470,beijing,华润八号院,116.6785059022854,40.158722332225196,顺义,101109711880,18500000.0,26047,Top ,710.26,Duplex,Other,Steel/Concrete,Hardcover,Unknown,2016,7,5,1,9
471,beijing,北辰香麓,116.18516756536327,40.05394684701574,海淀,101109799914,13800000.0,45598,Low,302.65,Duplex,Plate,Steel/Concrete,Rough,Yes,2010,5,2,1,3
472,beijing,月亮湾,116.00273968239695,40.55860702084673,顺义,101112169392,7500000.0,31483,First Floor ,238.23,Duplex,Plate,Mixed,Hardcover,No,2001,5,2,1,4
473,beijing,北京新天地五期,116.61232602858486,39.92220205130386,朝阳,101111010102,8990000.0,51783,Low,173.61,Flat,Plate & Tower,Steel/Concrete,Hardcover,Yes,2010,4,2,1,2
474,beijing,天通苑中苑,116.43371495589989,40.07866407586977,昌平,101109358884,6900000.0,33904,Low,203.52,Flat,Plate,Steel/Concrete,Hardcover,Yes,2008,4,1,1,2
475,beijing,紫禁壹号院南院,116.48330698954481,39.791523116117666,亦庄开发区,101109929529,12700000.0,69873,Middle,181.76,Flat,Plate,Steel/Concrete,Hardcover,Yes,2015,4,2,1,3
476,beijing,倚林佳园,116.3790153367863,40.02077689766063,朝阳,101108369698,18000000.0,88588,Middle,203.19,Flat,Plate,Steel/Concrete,Hardcover,Yes,2004,4,3,1,2
477,beijing,月亮湾,116.00273968239695,40.55860702084673,顺义,101112027910,7850000.0,24424,First Floor ,321.41,Duplex,Plate,Mixed,Simplicity,No,2001,5,2,1,3
478,beijing,丽水嘉园,116.49028170301594,39.938412560763325,朝阳,101111157481,7760000.0,88052,Middle,88.13,Flat,Tower,Steel/Concrete,Hardcover,Yes,2009,2,2,1,1
479,beijing,远大园五区,116.28940945199655,39.958905060487446,海淀,101112043148,15650000.0,112372,High,139.27,Flat,Plate,Steel/Concrete,Simplicity,Yes,2001,2,2,1,2
480,beijing,夏都盈座,116.47375602570162,40.00238105564871,朝阳,101110504343,14800000.0,61871,High,239.21,,Plate,Steel/Concrete,Rough,Yes,2003,4,2,1,3
481,beijing,星河湾朗园,116.52969818099662,39.93477485227087,朝阳,101111670564,23500000.0,95050,Low,247.24,Split-Level,Plate & Tower,Steel/Concrete,Hardcover,Yes,2006,4,2,1,2
482,beijing,蓝岸丽舍二期,116.7459016324937,40.1211069920465,顺义,101109800734,10800000.0,27731,First Floor ,389.46,Duplex,Plate,Steel/Concrete,Rough,No,2012,5,3,1,3
483,beijing,天鹅湾南区,116.52936643677178,39.92612974975738,朝阳,101111092546,15600000.0,112946,Middle,138.12,Duplex,Tower,Steel/Concrete,Hardcover,Yes,2008,3,2,1,3
484,beijing,远大美域,116.8404779315007,40.452551980353306,密云,101110439772,4270000.0,17445,First Floor ,244.77,Duplex,Other,Steel/Concrete,Rough,Unknown,NaN,3,1,1,2
485,beijing,阳光邑上别墅区,116.16677008885783,39.73613169433303,房山,101108978887,7360000.0,30868,First Floor ,238.44,Duplex,Plate,Steel/Concrete,Simplicity,No,2013,4,4,1,4
486,beijing,北京洋房,116.43763417300936,40.1203813998057,昌平,101112229872,6600000.0,40593,Middle,162.59,Duplex,Plate,Steel/Concrete,Hardcover,Yes,2007,4,2,1,3
487,beijing,风格雅园,116.47044981227216,40.00071686854372,朝阳,101112330792,11980000.0,82117,Middle,145.89,Flat,Plate,Steel/Concrete,Hardcover,Yes,2001,3,1,1,2
488,beijing,华远九都汇,116.47247710814707,39.962513963039335,朝阳,101112303176,19500000.0,74857,Low,260.5,Flat,Plate,Steel/Concrete,Hardcover,Yes,2011,4,2,1,4
489,beijing,华辉苑,116.46580242871629,39.87587050750758,朝阳,101111918007,6490000.0,43055,Middle,150.74,Flat,Tower,Steel/Concrete,Simplicity,Yes,2000,3,2,1,2
491,beijing,纳帕尔湾,116.67182367708833,40.20596764880657,顺义,101111800367,11500000.0,30513,First Floor ,376.9,Duplex,Plate,Steel/Concrete,Hardcover,Unknown,2008,5,2,1,5
492,beijing,泛海国际澜海园,116.50610930711845,39.94588210435569,朝阳,101111099978,35500000.0,119666,Middle,296.66,Flat,Plate,Steel/Concrete,Hardcover,Yes,2009,4,2,2,3
493,beijing,泛海国际樱海园,116.50305470906231,39.945591973202276,朝阳,101111496699,28800000.0,108385,Middle,265.72,Flat,Plate,Steel/Concrete,Hardcover,Yes,2009,4,2,1,3
494,beijing,左家庄东里,116.45225580196471,39.96077482848973,朝阳,101111469929,8000000.0,54694,Top ,146.27,Duplex,Plate,Mixed,Hardcover,No,1995,3,2,1,2
495,beijing,复地西绒线26号,116.38445107325774,39.90937005153619,西城,101111388507,48900000.0,130237,High,375.47,Flat,Tower,Steel/Concrete,Hardcover,Yes,2010,5,2,2,4
496,beijing,梨花园,116.6776767662997,39.89085553626136,通州,101112161013,3990000.0,38344,Middle,104.06,Flat,Plate,Mixed,Simplicity,No,1999,2,2,1,1
497,beijing,依翠园,116.22276299841413,39.90594041894685,石景山,101112222079,7690000.0,53160,Middle,144.66,Flat,Plate & Tower,Steel/Concrete,Hardcover,Yes,2002,3,1,1,2
498,beijing,华腾园,116.47187470447209,39.893108738921065,朝阳,101112082258,9250000.0,75240,Top ,122.94,Flat,Tower,Steel/Concrete,Hardcover,Yes,2004,3,2,1,2
501,beijing,映天朗,116.43674997089589,39.85832805723297,丰台,101106235776,10880000.0,67415,High,161.39,Flat,Plate,Steel/Concrete,Hardcover,Yes,2007,4,2,1,2
502,beijing,苹果派,116.58476897994692,39.93558507754611,朝阳,101110510652,7300000.0,58682,High,124.4,Duplex,Plate,Steel/Concrete,Hardcover,Yes,2007,3,2,1,2
503,beijing,益明园,116.373537559617,39.8418905550233,丰台,101111581128,9450000.0,79526,First Floor ,118.83,Duplex,Plate,Steel/Concrete,Hardcover,Yes,2004,3,2,1,3
504,beijing,富力丹麦小镇C区,116.32177791477649,39.634017456957146,大兴,101111898760,9580000.0,38327,First Floor ,249.96,,Plate,Steel/Concrete,Hardcover,No,2012,6,2,1,4
505,beijing,九台2000家园,116.41504035214459,40.01408510228726,朝阳,101111794378,9450000.0,63960,First Floor ,147.75,Duplex,Tower,Steel/Concrete,Hardcover,Yes,2003,4,2,1,3
506,beijing,香溪度,116.24666852498456,39.93893631719807,海淀,101106641516,13300000.0,81882,High,162.43,Flat,Plate,Steel/Concrete,Simplicity,Yes,2009,4,2,1,2
507,beijing,望京金茂府,116.43608657227678,39.847576535553024,朝阳,101111269615,33500000.0,120513,Middle,277.98,Flat,Plate,Steel/Concrete,Hardcover,Yes,2016,4,2,2,3
508,beijing,王府花园,116.40877700680682,40.11341204783705,昌平,101110862166,5400000.0,33767,First Floor ,159.92,Duplex,Plate,Mixed,Simplicity,Yes,1995,3,1,1,3
509,beijing,保利东郡,116.50669266671663,39.936083683549,朝阳,101111141241,19800000.0,118351,High,167.3,Flat,Plate,Steel/Concrete,Hardcover,Yes,2012,3,2,1,3
510,beijing,首开住总熙悦安郡,116.44751903701061,39.84290305728692,朝阳,101112727639,9750000.0,89639,Middle,108.77,Flat,Plate,Steel/Concrete,Hardcover,Yes,NaN,3,2,1,2
511,beijing,天鹅堡,116.5432640314861,39.75609812967715,通州,101112453553,9500000.0,39875,First Floor ,238.25,Duplex,Plate,Steel/Concrete,Hardcover,No,2007,5,2,1,4
512,beijing,望京金茂府,116.43608657227678,39.847576535553024,朝阳,101111855249,33500000.0,120327,Middle,278.41,Flat,Plate,Steel/Concrete,Hardcover,Yes,2016,4,2,2,3
513,beijing,望京新城,116.4791990384477,40.00422710311743,朝阳,101109989876,7990000.0,47360,Top ,168.71,Flat,Tower,Steel/Concrete,Hardcover,Yes,1999,4,1,1,2
514,beijing,北辰香麓,116.18516756536327,40.05394684701574,海淀,101110414041,18980000.0,58261,First Floor ,325.78,Duplex,Plate,Steel/Concrete,Hardcover,Yes,2010,5,2,1,2
515,beijing,华腾园,116.47187470447209,39.893108738921065,朝阳,101112227497,7120000.0,72138,Middle,98.7,Flat,Tower,Steel/Concrete,Simplicity,Yes,2000,2,2,1,1
516,beijing,万科青青家园,116.58558122778904,39.868649598893654,朝阳,101111865152,8850000.0,40281,Middle,219.71,Duplex,Plate,Mixed,Hardcover,No,2003,5,2,1,3
517,beijing,天通苑中苑,116.43371495589989,40.07866407586977,昌平,101112202619,5750000.0,36739,First Floor ,156.51,Duplex,Plate,Mixed,Simplicity,No,2007,4,2,1,2
518,beijing,芳城园一区,116.44228631758443,39.875385302854944,丰台,101112458574,7700000.0,63323,Middle,121.6,Flat,Plate & Tower,Steel/Concrete,Simplicity,Yes,1993,3,1,1,2
519,beijing,万象新天四区,116.5979529607641,39.93239709370271,朝阳,101111657159,12900000.0,70400,First Floor ,183.24,Duplex,Plate,Steel/Concrete,Hardcover,No,2006,4,2,1,3
520,beijing,叠墅,116.54232296663385,39.924075043856924,朝阳,101111654995,13500000.0,64397,Middle,209.64,Duplex,Plate,Steel/Concrete,Hardcover,Yes,2007,4,2,1,3
521,beijing,周庄嘉园东里B区,116.4804463356483,39.8721175220598,朝阳,101112673673,3200000.0,59085,Top ,54.16,Flat,Plate,Mixed,Hardcover,No,2004,1,1,1,1
522,beijing,时尚街区东区,116.67371622713675,39.88882045524149,通州,101112703408,2900000.0,44377,Middle,65.35,Flat,Plate & Tower,Steel/Concrete,Simplicity,Yes,2004,2,1,1,1
523,beijing,路劲世界城一期,116.2976926372735,40.21306903108399,昌平,101112735211,3780000.0,43584,High,86.73,Flat,Plate,Steel/Concrete,Rough,Yes,2013,2,1,1,1
524,beijing,安苑北里,116.41864156910356,39.99398868112335,朝阳,101112708315,3690000.0,83296,Low,44.3,Flat,Tower,Steel/Concrete,Simplicity,Yes,1988,1,1,1,1
525,beijing,核桃园北里,116.46358909377025,39.931134320811644,朝阳,101112758712,6720000.0,104919,High,64.05,Flat,Plate,Mixed,Hardcover,No,1986,2,1,1,1
526,beijing,小关东里10号院,116.42110301603144,39.9841404032627,朝阳,101112754845,4100000.0,91132,Middle,44.99,Flat,Plate,Mixed,Simplicity,No,1993,1,1,1,1
527,beijing,安慧北里秀园,116.42128249747233,40.00493881382989,朝阳,101112698861,4990000.0,100423,Middle,49.69,Flat,Plate,Mixed,Hardcover,No,1992,1,1,1,1
528,beijing,gogo新世代,116.42934999959634,39.87269273484701,丰台,101112716489,2920000.0,62945,Middle,46.39,Flat,Tower,Steel/Concrete,Hardcover,Yes,2005,1,1,1,1
529,beijing,炫特嘉园三期,116.51306300024065,39.93712106275075,朝阳,101112731237,4680000.0,65574,High,71.37,Flat,Plate & Tower,Steel/Concrete,Hardcover,Yes,2006,1,1,1,1
530,beijing,康静里,116.53915428377795,39.96777160480555,朝阳,101112756114,2350000.0,50182,High,46.83,Flat,Plate,Mixed,Simplicity,No,1995,1,1,1,1
531,beijing,安外花园,116.41739202613917,39.96490552858546,东城,101112723249,5500000.0,130086,Low,42.28,Flat,Plate,Mixed,Simplicity,No,1990,1,1,1,1
532,beijing,北亚花园,116.42773897849476,40.135786058283564,昌平,101112696724,2280000.0,28687,Top ,79.48,Flat,Plate,Mixed,Rough,No,2003,2,1,1,1
533,beijing,羊坊店路3号院,116.32513658924773,39.91066698911078,海淀,101112759777,6350000.0,105168,Low,60.38,Flat,Plate & Tower,Steel/Concrete,Simplicity,Yes,1982,2,1,1,1
534,beijing,亚运豪庭,116.42946525219328,40.00088972814068,朝阳,101112725913,8380000.0,66939,High,125.19,Flat,Tower,Steel/Concrete,Hardcover,Yes,2000,2,1,1,1
535,beijing,望京西园三区,116.48086503584649,40.00566806430206,朝阳,101112703245,6380000.0,78053,High,81.74,Flat,Tower,Steel/Concrete,Simplicity,Yes,2000,1,1,1,1
536,beijing,天和人家,116.38093905803592,40.005376461772876,朝阳,101112727534,9900000.0,90478,Low,109.42,Flat,Plate,Steel/Concrete,Simplicity,Yes,2004,2,1,1,1
537,beijing,北京城建·广悦居,116.19412205434784,39.74755556040609,房山,101112778480,2480000.0,37950,Middle,65.35,Flat,Tower,Steel/Concrete,Simplicity,Yes,2016,1,1,1,1
538,beijing,观音惠园,116.52779386314602,39.89606863110143,朝阳,101112698435,2510000.0,50831,First Floor ,49.38,Flat,Plate,Steel/Concrete,Simplicity,No,2006,1,0,1,1
539,beijing,龙华园,116.33118101753273,40.0809530687648,昌平,101112780304,3850000.0,57948,Middle,66.44,Flat,Plate,Mixed,Simplicity,No,1995,2,1,1,1
540,beijing,天通苑北三区,116.44012625215514,40.08296368870586,昌平,101112708381,4200000.0,44230,High,94.96,Flat,Plate,Mixed,Simplicity,No,2003,2,2,1,2
541,beijing,幸福一村,116.45529988984639,39.940657963396504,朝阳,101112713132,4450000.0,83225,High,53.47,Flat,Plate,Mixed,Simplicity,No,1984,2,1,1,1
542,beijing,永翌公馆,116.3086540305979,39.892218081972985,丰台,101112707011,5390000.0,74069,Middle,72.77,Flat,Tower,Steel/Concrete,Hardcover,Yes,2011,1,1,1,1
543,beijing,古城北路,116.1959197433344,39.92388870834631,石景山,101112701005,2700000.0,45880,Middle,58.85,Flat,Plate,Mixed,Rough,No,1987,2,1,1,1
544,beijing,天通苑北三区,116.44012625215514,40.08296368870586,昌平,101112731659,4350000.0,44892,Middle,96.9,Flat,Plate,Mixed,Hardcover,No,2004,2,1,1,2
545,beijing,豪柏大厦,116.32001804445188,39.94523705178014,海淀,101112754719,4950000.0,55160,Low,89.74,Flat,Plate & Tower,Steel/Concrete,Hardcover,Yes,2005,2,0,0,1
546,beijing,卫生部小区,116.35602626149714,39.95592951575087,海淀,101112779350,9600000.0,117059,Middle,82.01,Flat,Plate & Tower,Steel/Concrete,Simplicity,Yes,1990,3,1,1,1
547,beijing,槐柏树街南里,116.36101904352161,39.901360064404415,西城,101112763997,6670000.0,114961,Middle,58.02,Flat,Plate,Mixed,Hardcover,No,1992,2,1,1,1
548,beijing,地铁楼,116.1934432947045,39.92647557222195,石景山,101112702300,2800000.0,45191,Middle,61.96,Flat,Plate,Mixed,Hardcover,No,1985,2,1,1,1
549,beijing,南苑北里二区,116.40649800572801,39.81504118782795,丰台,101112757943,2050000.0,36772,Low,55.75,Flat,Plate,Mixed,Simplicity,No,1996,1,1,1,1
550,beijing,东亚逸品阁,116.69569416974386,39.93954401896632,通州,101112758737,4120000.0,46204,High,89.17,Flat,Plate & Tower,Steel/Concrete,Hardcover,Yes,2013,2,1,1,1
551,beijing,古城南里,116.1985342615212,39.908304367764245,石景山,101112746335,3400000.0,55693,High,61.05,Flat,Plate,Steel/Concrete,Hardcover,Yes,1984,2,1,1,1
552,beijing,古城路小区,116.19405791533443,39.919520882462265,石景山,101112736539,2400000.0,42622,Middle,56.31,Flat,Plate,Mixed,Simplicity,No,1986,2,1,1,1
553,beijing,星河城东区,116.36999661895779,39.85039625570912,丰台,101112754731,5000000.0,73444,Middle,68.08,Flat,Tower,Steel/Concrete,Hardcover,Yes,2006,1,1,1,1
554,beijing,大西洋新城G区,116.4716009907832,39.99832007157605,朝阳,101112762073,7460000.0,103612,Low,72,Flat,Plate & Tower,Steel/Concrete,Hardcover,Yes,2012,1,1,1,1
555,beijing,鹿鸣苑,116.30329222466996,40.34081520443998,亦庄开发区,101112760059,3990000.0,75784,Middle,52.65,Flat,Tower,Steel/Concrete,Simplicity,Yes,2000,1,1,1,1
556,beijing,福苑小区,116.35777903520822,39.76055111721712,大兴,101112697599,2320000.0,30959,Top ,74.94,Flat,Plate,Mixed,Hardcover,No,1996,2,1,1,1
557,beijing,后南仓,116.65802067394421,39.90801829621002,通州,101112737023,2050000.0,44392,First Floor ,46.18,Flat,Plate,Mixed,Simplicity,No,1982,1,1,1,1
558,beijing,车公庄北里,116.35386655539006,39.94038890071067,西城,101112767268,8800000.0,123770,Low,71.1,Flat,Tower,Mixed,Simplicity,Yes,1991,3,1,1,1
559,beijing,垡头西里,116.51854508927639,39.869602864473194,朝阳,101112776424,2690000.0,41803,Top ,64.35,Flat,Plate,Mixed,Simplicity,No,1998,2,1,1,1
560,beijing,绿丰家园,116.58431973736137,39.879121151002096,朝阳,101112738107,3320000.0,40078,Middle,82.84,Flat,Plate,Mixed,Simplicity,No,2013,2,1,1,1
561,beijing,峪园小区,116.10795856610288,39.93650815273648,门头沟,101112716646,2220000.0,34912,High,63.59,Flat,Plate,Mixed,Simplicity,No,1990,2,1,1,1
562,beijing,北京青年城,116.44591295658931,40.03600803548286,朝阳,101112764453,6090000.0,69952,High,87.06,Flat,Plate,Mixed,Hardcover,No,2003,2,2,1,1
563,beijing,暂安处,116.34588780585044,39.994986827619094,海淀,101112759176,8200000.0,100086,Middle,81.93,Flat,Plate,Mixed,Other,No,1998,2,1,1,1
564,beijing,翠微西里,116.30181738668368,39.92332727788417,海淀,101112777078,8500000.0,141833,Low,59.93,Flat,Plate & Tower,Steel/Concrete,Hardcover,Yes,1993,2,1,1,1
565,beijing,住欣家园,116.61757258191588,39.92873112146793,朝阳,101112696231,2990000.0,60441,Low,49.47,Flat,Tower,Steel/Concrete,Hardcover,Yes,2010,1,1,1,1
566,beijing,当代城市家园,116.32536404020286,40.04934506858991,海淀,101112800333,5880000.0,102137,High,57.57,Flat,Plate & Tower,Steel/Concrete,Hardcover,Yes,2002,1,1,1,1
567,beijing,柏林爱乐二期,116.59475050162104,39.928013285070215,朝阳,101112765290,3100000.0,52811,Low,58.7,Flat,Tower,Steel/Concrete,Other,Yes,2007,1,1,1,1
568,beijing,高梁桥斜街乙40号院,116.35106222524901,39.95202725548203,海淀,101112731482,6900000.0,109524,Middle,63,Flat,Plate,Mixed,Hardcover,No,1990,2,1,1,1
569,beijing,钢铁研究院,116.3370529711598,39.961684011951185,海淀,101112777155,6250000.0,94841,Top ,65.9,Flat,Plate,Mixed,Hardcover,No,1954,2,1,1,1
570,beijing,富力桃园C区,116.38624804359989,40.06955205262842,海淀,101112765047,7200000.0,79000,High,91.14,Flat,Plate & Tower,Steel/Concrete,Hardcover,Yes,2010,2,1,1,1
571,beijing,和平街东里,116.2387587653081,40.230996881699916,昌平,101112752766,2380000.0,33860,Low,70.29,Flat,Plate,Mixed,Hardcover,No,1993,2,1,1,1
572,beijing,石园北区,116.67084398509914,40.120350089024825,顺义,101112785440,2420000.0,34288,First Floor ,70.58,Flat,Plate,Mixed,Simplicity,No,1996,2,1,1,1
573,beijing,凯德锦绣,116.49863504595322,39.924208328075245,朝阳,101112845173,5600000.0,92993,High,60.22,Flat,Plate,Steel/Concrete,Simplicity,Yes,2011,1,0,1,1
574,beijing,天鑫家园,116.38178750759008,40.08674497155083,昌平,101112760047,3690000.0,61542,First Floor ,59.96,Flat,Plate,Mixed,Simplicity,No,2003,1,1,1,1
575,beijing,农展南里,116.47025254438216,39.940087267102626,朝阳,101112767976,4900000.0,84135,Middle,58.24,Flat,Tower,Steel/Concrete,Simplicity,Yes,1989,2,1,1,1
576,beijing,砂轮厂宿舍,116.34982642635893,40.03835944450455,海淀,101112771814,4700000.0,75600,Middle,62.17,Flat,Plate,Mixed,Simplicity,No,1998,2,1,1,1
577,beijing,安慧里四区,116.41929418805655,39.99693547177334,朝阳,101112729375,5500000.0,81603,First Floor ,67.4,Flat,Plate,Mixed,Hardcover,No,1989,3,1,1,1
578,beijing,三源里街,116.46170947932117,39.9589005937078,朝阳,101112727845,4600000.0,68128,Middle,67.52,Flat,Plate,Mixed,Simplicity,No,1995,2,1,1,1
579,beijing,兴隆家园,116.5307869272747,39.91644911872162,朝阳,101112747132,3920000.0,66815,First Floor ,58.67,Flat,Plate,Mixed,Hardcover,No,1999,1,1,1,1
580,beijing,东一时区,116.61313378489943,39.90555187361665,朝阳,101112765518,3100000.0,64651,Middle,47.95,Flat,Plate,Steel/Concrete,Simplicity,Yes,2006,1,1,1,1
581,beijing,芳源里,116.42370621556881,39.790700501706105,大兴,101112707317,2950000.0,49580,High,59.5,Flat,Plate,Steel/Concrete,Hardcover,No,2003,1,1,1,1
582,beijing,小关东里8号院,116.41948516780798,39.983949948073274,朝阳,101112713260,4400000.0,79208,First Floor ,55.55,Flat,Plate,Mixed,Rough,No,1980,2,1,1,1
583,beijing,新永外文化用品商城,116.40311840073836,39.871039348387285,东城,101112844451,3450000.0,92494,High,37.3,Flat,Plate & Tower,Steel/Concrete,Simplicity,Yes,2007,1,1,1,1
584,beijing,太月园,116.35387185539255,39.979343616662206,海淀,101112637780,9900000.0,104873,Middle,94.4,Flat,Tower,Steel/Concrete,Hardcover,Yes,1999,2,1,1,1
585,beijing,天桥南里,116.4026706852722,39.8887828089906,西城,101112642857,7350000.0,103829,Middle,70.79,Flat,Plate,Steel/Concrete,Hardcover,No,2002,2,1,1,1
586,beijing,华芳园,116.4510352742683,39.85435018998645,丰台,101112648250,5000000.0,54651,Low,91.49,Flat,Tower,Steel/Concrete,Simplicity,Yes,1999,2,2,1,1
587,beijing,小羊宜宾胡同,116.43715331006987,39.91880170362438,东城,101112655487,7760000.0,95204,Top ,81.51,Flat,Plate,Mixed,Hardcover,No,1990,3,1,1,1
588,beijing,林调社区,116.4328481809133,39.96326509942301,东城,101112518793,11300000.0,145958,Middle,77.42,Flat,Plate,Mixed,Simplicity,Yes,1985,3,1,1,1
589,beijing,燕尚园,116.32003421395106,40.05466141766816,海淀,101112677657,9100000.0,90144,Middle,100.95,Flat,Plate,Steel/Concrete,Hardcover,Yes,2006,2,2,1,2
590,beijing,曙光里,116.45855301342023,39.97149705326099,朝阳,101112613779,4200000.0,73414,Middle,57.21,Flat,Plate,Mixed,Hardcover,No,1991,2,1,1,1
591,beijing,望京花园东区,116.48164485485971,40.01360848297158,朝阳,101112557139,8880000.0,74610,Middle,119.02,Flat,Tower,Steel/Concrete,Hardcover,Yes,2002,3,2,1,2
592,beijing,松榆西里,116.47203298590294,39.88113008384472,朝阳,101112705038,5650000.0,66113,High,85.46,Flat,Plate,Mixed,Hardcover,No,1998,2,1,1,1
593,beijing,首地浣溪谷,116.40897355605242,39.71206641702832,大兴,101112747980,2450000.0,29558,First Floor ,82.89,Flat,Plate,Steel/Concrete,Hardcover,Yes,2014,2,1,1,1
594,beijing,后现代城B区,116.49107194237307,39.90572255432638,朝阳,101112819568,3250000.0,70059,High,46.39,Flat,Plate & Tower,Mixed,Hardcover,Yes,2004,1,0,1,1
595,beijing,御景山,116.19926898559781,39.9291790823931,石景山,101112806664,5100000.0,52089,Middle,97.91,Flat,Plate & Tower,Steel/Concrete,Simplicity,Yes,2003,2,1,1,1
596,beijing,茂华景公阁,116.20927440219849,39.92381186382019,石景山,101112809366,4680000.0,77703,Middle,60.23,Flat,Plate,Steel/Concrete,Hardcover,Yes,2008,1,1,1,1
597,beijing,北京花园,116.48139323948637,39.961795101278675,朝阳,101112726566,19800000.0,97557,Top ,202.96,Flat,Plate,Steel/Concrete,Hardcover,Yes,2006,4,2,1,2
598,beijing,中建国际港,116.33690277447853,39.75987317580488,大兴,101112700141,4800000.0,55428,High,86.6,Flat,Plate,Steel/Concrete,Hardcover,Yes,2015,2,1,1,1
599,beijing,建功北里,116.35883319043603,39.88458467119589,西城,101112745010,8200000.0,104260,Middle,78.65,Flat,Plate,Steel/Concrete,Simplicity,Yes,1998,3,1,1,1
600,beijing,中海馥园,116.327428705587,39.934736332443386,海淀,101112714643,24000000.0,119469,Low,200.89,Flat,Plate & Tower,Steel/Concrete,Hardcover,Yes,2003,4,2,1,2
601,beijing,华业玫瑰郡,116.50752827050201,39.936850672125594,朝阳,101112714889,7820000.0,86133,Middle,90.79,Flat,Plate,Steel/Concrete,Hardcover,Yes,2008,2,1,1,1
602,beijing,郭庄北里,116.41754904994231,39.875908160905134,东城,101112751684,6700000.0,85394,Middle,78.46,Flat,Plate,Mixed,Simplicity,No,1990,3,1,1,1
603,beijing,蒲安北里,116.42688612724356,39.87253830695766,丰台,101112752849,3550000.0,62150,High,57.12,Flat,Tower,Steel/Concrete,Hardcover,Yes,1990,2,1,1,1
604,beijing,北辰福第二号院,116.60835497924744,39.936064043659215,朝阳,101112698245,4880000.0,58255,High,83.77,Flat,Plate,Steel/Concrete,Hardcover,Yes,2008,2,1,1,1
605,beijing,金海国际南区,116.4993756988462,39.900356457692645,朝阳,101112733138,6400000.0,59419,First Floor ,107.71,Flat,Plate,Steel/Concrete,Hardcover,Yes,2005,3,1,1,1
606,beijing,芳源里,116.42370621556881,39.790700501706105,大兴,101112789689,2990000.0,50955,Top ,58.68,Flat,Plate,Steel/Concrete,Simplicity,No,2004,1,1,1,1
607,beijing,天赐良园一期,116.64359667220104,39.93248554709329,通州,101112705315,3750000.0,50676,Low,74,Flat,Plate,Mixed,Simplicity,No,2000,2,1,1,1
608,beijing,鸿博家园六区,116.48240329420179,39.83242440939187,朝阳,101112703607,4300000.0,48056,First Floor ,89.48,Flat,Plate,Mixed,Simplicity,No,2008,2,1,1,1
609,beijing,丽景长安二期,116.11171905262874,39.91115270305327,门头沟,101112742910,7100000.0,45742,High,155.22,Flat,Plate & Tower,Steel/Concrete,Hardcover,Yes,2013,4,2,1,2
610,beijing,建材城西二里,116.36123122328306,40.0694359635764,海淀,101112777573,4420000.0,74726,High,59.15,Flat,Plate,Mixed,Simplicity,No,1996,2,1,1,1
611,beijing,慧时欣园一期,116.42087601422907,39.85445868539312,丰台,101112754510,5080000.0,55392,Middle,91.71,Flat,Tower,Steel/Concrete,Hardcover,Yes,2001,2,2,1,1
612,beijing,保利芳园,116.27301807135598,40.12563457752635,昌平,101112816771,2600000.0,51425,Low,50.56,Flat,Plate & Tower,Steel/Concrete,Simplicity,Yes,NaN,2,1,1,1
613,beijing,麓秀佳园,116.85582089978058,40.481617344716,密云,101112720282,1250000.0,11206,Top ,111.55,Flat,Plate,Mixed,Rough,Unknown,2006,3,2,1,2
614,beijing,瑞康家园,116.34881241909927,39.74485377966035,大兴,101112714825,4850000.0,42266,Middle,114.75,Flat,Plate,Steel/Concrete,Simplicity,Yes,2005,3,2,1,1
615,beijing,四海公寓,116.30228414622665,40.00164085392839,通州,101112707226,2990000.0,28517,High,104.85,Flat,Plate,Mixed,Hardcover,No,1994,3,2,1,1
616,beijing,龙博苑二区,116.34883119368443,40.07471588117889,昌平,101112802494,4050000.0,68459,Middle,59.16,Flat,Plate,Mixed,Hardcover,No,2004,1,1,1,1
617,beijing,灵通观,116.45306858879015,39.91090088768393,朝阳,101112745588,3700000.0,83597,Middle,44.26,Flat,Plate,Mixed,Hardcover,No,1976,2,1,1,1
618,beijing,飘HOME,116.4946163864238,39.97682525420871,朝阳,101112807488,4250000.0,68893,Middle,61.69,Flat,Tower,Steel/Concrete,Hardcover,Yes,2004,1,1,1,1
619,beijing,嘉诚花园一期,116.41236304240266,40.04990207323682,昌平,101112764664,4500000.0,38807,Top ,115.96,Flat,Plate,Mixed,Simplicity,No,2000,3,1,1,1
620,beijing,万年花城一期,116.32811797540481,39.84962981467208,丰台,101112737447,6920000.0,74836,Middle,92.47,Flat,Plate,Steel/Concrete,Simplicity,Yes,2005,2,1,1,1
621,beijing,樊家村甲6号院,116.31779788238397,39.85416137848679,丰台,101112695631,4500000.0,60073,Low,74.91,Flat,Plate,Steel/Concrete,Hardcover,Yes,2011,2,1,1,1
622,beijing,海特花园小区,116.19527224472282,39.93902413970611,石景山,101112789056,4580000.0,52900,High,86.58,Flat,Tower,Steel/Concrete,Simplicity,Yes,1995,2,2,1,1
623,beijing,美景东方,116.47709664423213,39.87562963601552,朝阳,101112747729,7150000.0,63449,High,112.69,Flat,Tower,Steel/Concrete,Simplicity,Yes,2002,3,2,1,1
624,beijing,樊家村甲6号院,116.31779788238397,39.85416137848679,丰台,101112695581,4500000.0,56342,Low,79.87,Flat,Plate,Steel/Concrete,Hardcover,Yes,2010,2,1,1,1
625,beijing,怡锦园,116.29675750123761,39.839945699623485,丰台,101112791666,5880000.0,65794,Low,89.37,Flat,Tower,Steel/Concrete,Hardcover,Yes,2003,2,2,1,1
626,beijing,天通苑东一区,116.44154970706626,40.074520504731524,昌平,101112832150,4490000.0,42132,Middle,106.57,Flat,Tower,Steel/Concrete,Simplicity,Yes,2001,2,1,1,1
627,beijing,永乐西区,116.23546773324173,39.906995831348915,石景山,101112759720,2680000.0,44342,Top ,60.44,Flat,Plate,Mixed,Simplicity,No,1986,2,1,1,1
628,beijing,曙光里,116.45855301342023,39.97149705326099,朝阳,101112715713,4000000.0,70213,Middle,56.97,Flat,Plate,Mixed,Simplicity,No,1986,2,1,1,1
629,beijing,鑫兆雅园北区,116.43314300478168,39.85059809505684,丰台,101112696381,5100000.0,74118,First Floor ,68.81,Flat,Plate,Steel/Concrete,Simplicity,No,2005,2,1,1,1
630,beijing,西坝河北里,116.44486562219522,39.97589166914689,朝阳,101112694250,3990000.0,88451,First Floor ,45.11,Flat,Tower,Steel/Concrete,Hardcover,Yes,1992,2,1,1,1
631,beijing,融科香雪兰溪,116.54391880637232,39.749493966812956,通州,101112751563,3000000.0,33701,High,89.02,Flat,Plate,Steel/Concrete,Simplicity,Yes,2010,3,1,1,1
632,beijing,康家园,116.52365366288107,39.91796941944788,朝阳,101112731694,5100000.0,59406,Low,85.85,Flat,Tower,Steel/Concrete,Hardcover,Yes,1997,3,1,1,1
633,beijing,育新花园,116.35182201204934,40.06274904947312,海淀,101112715971,8400000.0,96331,Middle,87.2,Flat,Plate,Mixed,Hardcover,No,1995,3,2,1,1
634,beijing,核二院,116.3161624273725,39.93219549699885,海淀,101112709148,7700000.0,130731,Middle,58.9,Flat,Plate,Mixed,Other,No,1988,2,1,1,1
635,beijing,花市枣苑三期,116.4358789738734,39.9019660959187,东城,101112728652,15800000.0,120953,High,130.63,Flat,Tower,Steel/Concrete,Hardcover,Yes,2005,3,1,1,2
636,beijing,永定路30号院,116.27164339443407,39.925894036156436,海淀,101112725612,4350000.0,81767,Top ,53.2,Flat,Plate,Mixed,Hardcover,No,1986,2,1,1,1
637,beijing,阳光丽景,116.39355629790687,39.97113176127789,西城,101112706349,26800000.0,179085,High,149.65,Flat,Plate & Tower,Steel/Concrete,Hardcover,Yes,2003,3,2,1,2
638,beijing,南露园,116.3479641492062,39.93075567109713,西城,101112808670,8560000.0,124419,High,68.8,Flat,Plate,Mixed,Hardcover,No,1994,2,1,1,1
639,beijing,澳林春天三期,116.37877315362081,40.018284249760505,朝阳,101112725017,11000000.0,93681,First Floor ,117.42,Flat,Plate,Mixed,Other,No,2002,2,2,1,2
640,beijing,机械研究院东区,116.33374352383049,39.9409517114179,海淀,101112710641,8160000.0,118347,Middle,68.95,Flat,Plate,Mixed,Simplicity,No,1982,3,1,1,1
641,beijing,CBD总部公寓二期,116.46139902493692,39.905667067576005,朝阳,101112797088,7290000.0,83334,Middle,87.48,Flat,Plate,Steel/Concrete,Hardcover,Yes,2005,1,1,1,1
642,beijing,北洼路25号院,116.3079330505956,39.939664687366054,海淀,101112731744,11800000.0,100170,Middle,117.8,Flat,Plate,Mixed,Hardcover,No,1997,3,1,1,1
643,beijing,拂林园,116.42285255584267,40.0347209509003,朝阳,101112825684,8900000.0,66632,Low,133.57,Flat,Tower,Steel/Concrete,Hardcover,Yes,2004,2,1,1,1
644,beijing,奥林匹克花园四期,116.54858801875208,39.96581009448197,朝阳,101112760502,7580000.0,68344,Middle,110.91,Flat,Plate,Steel/Concrete,Hardcover,Yes,2009,2,2,1,2
645,beijing,嘉铭桐城A区,116.43559232458519,40.00834299778978,朝阳,101112731111,15500000.0,101420,Middle,152.83,Flat,Plate,Steel/Concrete,Hardcover,Yes,2001,3,2,1,2
646,beijing,天之骄子,116.47206298930698,39.90150314893908,朝阳,101112712165,9500000.0,86028,Middle,110.43,Flat,Plate,Steel/Concrete,Hardcover,Yes,2006,2,1,1,2
647,beijing,牡丹园东里,116.38086494783134,39.983892590273506,海淀,101112801819,8650000.0,117209,High,73.8,Flat,Plate,Steel/Concrete,Hardcover,Yes,1996,2,1,1,1
648,beijing,蝶翠华庭,116.33808862758225,39.90091088217732,西城,101112726965,10960000.0,117926,Low,92.94,Flat,Tower,Steel/Concrete,Simplicity,Yes,2004,2,2,1,1
649,beijing,燕莎后,116.50655828021233,39.96501834076332,朝阳,101112748023,10600000.0,76458,Low,138.64,Flat,Plate,Steel/Concrete,Hardcover,Yes,2006,3,2,1,2
650,beijing,远洋沁山水,116.25716639266581,39.908432563404965,石景山,101112733315,9460000.0,108214,Middle,87.42,Flat,Plate & Tower,Steel/Concrete,Hardcover,Yes,2008,3,1,1,1
651,beijing,明日嘉园,116.37313350179862,39.85143923592131,丰台,101112795508,6500000.0,70722,High,91.91,Flat,Tower,Steel/Concrete,Simplicity,Yes,2003,2,1,1,1
652,beijing,东恒时代一期,116.50111445899131,39.916295066877204,朝阳,101112722035,7250000.0,73875,Middle,98.14,Flat,Tower,Steel/Concrete,Hardcover,Yes,2003,2,1,1,1
653,beijing,金色漫香苑,116.43064400868346,40.1358820376031,昌平,101112791854,4200000.0,49106,High,85.53,Flat,Plate,Steel/Concrete,Simplicity,Yes,2013,2,1,1,1
654,beijing,万润家园,116.33257482836201,40.07200747570814,昌平,101112757908,5750000.0,57311,Middle,100.33,Flat,Plate,Mixed,Hardcover,Yes,2003,3,1,1,1
655,beijing,北京新天地三期,116.61284381188081,39.91996025776528,朝阳,101112757316,4280000.0,63436,Low,67.47,Flat,Plate & Tower,Steel/Concrete,Hardcover,Yes,2008,2,1,1,1
656,beijing,团结湖北三条,116.47498050594228,39.936761463729134,朝阳,101112712001,4850000.0,75078,Middle,64.6,Flat,Plate,Steel/Concrete,Hardcover,No,1979,3,1,1,1
657,beijing,太平桥小区,116.32607199477528,39.89345687459736,丰台,101112794436,4100000.0,69199,Low,59.25,Flat,Plate,Mixed,Hardcover,No,1987,2,1,1,1
658,beijing,紫金庄园,116.31527121847606,39.97258096010411,海淀,101112735737,9500000.0,100317,High,94.7,Flat,Tower,Steel/Concrete,Hardcover,Yes,1997,2,1,1,1
659,beijing,金荣园,116.3856689060376,39.77315101932884,大兴,101112756356,2350000.0,37155,First Floor ,63.25,Flat,Plate,Mixed,Hardcover,No,1998,2,1,1,1
660,beijing,青年路小区,116.5293671554162,39.93147389346306,朝阳,101112721188,3060000.0,59615,Middle,51.33,Flat,Plate,Mixed,Simplicity,No,1990,2,1,1,1
661,beijing,本家润园三期,116.44281901275184,39.90066906149609,东城,101112734747,7300000.0,105400,Middle,69.26,Flat,Tower,Steel/Concrete,Hardcover,Yes,2005,2,1,1,1
662,beijing,苹果派,116.58476897994692,39.93558507754611,朝阳,101112704087,6990000.0,62278,Middle,112.24,Flat,Plate,Steel/Concrete,Simplicity,Yes,2007,3,1,1,2
663,beijing,牡丹园东里,116.38086494783134,39.983892590273506,海淀,101112798793,8200000.0,108898,High,75.3,Flat,Plate,Steel/Concrete,Simplicity,Yes,1996,2,1,1,1
664,beijing,韩庄子二里,116.29589494828694,39.84531635436609,丰台,101112731389,3200000.0,56309,Middle,56.83,Flat,Plate,Mixed,Hardcover,No,1992,2,1,1,1
665,beijing,梵谷水郡,116.51334839190116,39.96659409713264,朝阳,101112814218,4900000.0,55866,First Floor ,87.71,Flat,Tower,Steel/Concrete,Simplicity,Yes,2009,2,1,1,1
666,beijing,天畅园,116.42242029123128,40.04124595956638,朝阳,101112794155,5180000.0,58844,Low,88.03,Flat,Tower,Steel/Concrete,Hardcover,Yes,2008,2,1,1,1
667,beijing,龙兴园中区,116.32617098804248,40.06817104931053,昌平,101112713347,4600000.0,53266,Low,86.36,Flat,Plate,Mixed,Hardcover,No,1997,2,2,1,1
