City,HouseName,District,TotalPrice,Price,Floor,Square,ConstructionTime,Bedrooms,LivingRooms,Kitchens,Bathrooms,Type,Structure,Renovation,Elevator,FloorType,Lng,Lat,ID
beijing,富力又一城B区,朝阳,7950000.0,50579,High,157.18,2008,3,2,1,2,Plate,Steel/Concrete,Hardcover,Yes,Flat,116.56893517753639,39.85275396508811,101112779955
beijing,白广路7号院,西城,6350000.0,109805,Low,57.83,1984,2,1,1,1,Plate,Mixed,Other,No,Flat,116.36368925665002,39.89035320741727,101112823905
beijing,莱茵河畔,亦庄开发区,5850000.0,54072,Low,108.19,2003,2,1,1,1,Plate,Steel/Concrete,Hardcover,Yes,Flat,116.47969750817518,39.80339725076028,101112557404
beijing,瑞海家园五区,大兴,5090000.0,46379,First Floor ,109.75,2004,3,1,1,1,Plate,Mixed,Hardcover,No,Flat,116.34336617245337,39.78917167385806,101112573961
beijing,合生世界村,通州,2730000.0,30063,Middle,90.81,2011,2,1,1,1,Plate,Steel/Concrete,Hardcover,Yes,Flat,116.55298001405147,39.74307440176669,101111602994
beijing,三环新城8号院,丰台,6400000.0,62574,Middle,102.28,2007,2,1,1,2,Plate & Tower,Steel/Concrete,Hardcover,Yes,Flat,116.3140815924892,39.855146972902574,101107918650
beijing,双裕花园西区,顺义,3890000.0,41472,Middle,93.8,1999,2,1,1,1,Plate,Mixed,Simplicity,No,Flat,116.55538199315458,40.113313070667765,101112245982
beijing,中粮祥云国际生活区,顺义,4290000.0,51194,Low,83.8,2013,2,1,1,1,Plate,Steel/Concrete,Hardcover,Yes,Flat,116.54354403331357,40.098554053570254,101110117141
beijing,长城国际,通州,1980000.0,40808,Low,48.52,2009,1,0,1,1,Tower,Steel/Concrete,Simplicity,Yes,Flat,116.32356949528558,39.903923778112734,101111723199
beijing,西府景园,丰台,6980000.0,58464,Middle,119.39,2004,3,2,1,2,Plate,Steel/Concrete,Simplicity,Yes,Flat,116.2765031374125,39.88870114977185,101111350123
beijing,翠谷玉景,石景山,7200000.0,46882,Top ,153.58,2004,3,1,1,2,Plate,Steel/Concrete,Simplicity,No,Duplex,116.25095838294746,39.923404814632946,101112794090
beijing,望京西园一区,朝阳,6600000.0,57148,High,115.49,1997,3,2,1,2,Plate,Mixed,Hardcover,No,Duplex,116.48010893209874,40.010317093256624,101112815987
beijing,北苑家园莲葩园,朝阳,4850000.0,45319,Low,107.02,2004,2,1,1,2,Tower,Steel/Concrete,Simplicity,Yes,Flat,116.42803452100752,40.05103139505239,101112453417
beijing,首开保利熙悦诚郡,大兴,8360000.0,65023,Low,128.57,2016,3,2,1,2,Plate,Steel/Concrete,Hardcover,Yes,Flat,116.43039571704051,39.82472309328116,101112801177
beijing,汇鸿家园,朝阳,3900000.0,52639,Low,74.09,2005,2,1,1,1,Plate & Tower,Steel/Concrete,Hardcover,Yes,Flat,116.58869134112568,39.924842237240924,101111311959
beijing,玉桥南里,通州,3900000.0,35423,Top ,110.1,1997,3,2,1,2,Plate,Mixed,Hardcover,No,Flat,116.68870867660664,39.89609298783278,101112786462
beijing,富贵园一区,东城,21000000.0,133716,High,157.05,2004,4,2,1,2,Plate,Steel/Concrete,Simplicity,Yes,Duplex,116.43982397235102,39.90249719067785,101112721044
beijing,新景家园东区,东城,13600000.0,111879,Middle,121.56,2010,2,1,1,2,Plate & Tower,Steel/Concrete,Hardcover,Yes,Flat,116.43208929241847,39.90143416673244,101112804722
beijing,都市经典家园,朝阳,6100000.0,66565,High,91.64,2003,2,1,1,1,Tower,Steel/Concrete,Hardcover,Yes,Flat,116.52709372383154,39.92028605216432,101112785366
beijing,禾风相府,东城,9500000.0,141034,Top ,67.36,2004,2,1,1,1,Plate,Steel/Concrete,Hardcover,Yes,Flat,116.42742600885508,39.92925709659209,101112791238
beijing,小关东街,朝阳,7350000.0,70674,Top ,104,1995,3,2,1,1,Plate,Mixed,Simplicity,No,Flat,116.41852514870945,39.98460610402795,101112798525
beijing,龙潭西里,东城,5000000.0,113328,Middle,44.12,1974,2,1,1,1,Plate,Mixed,Simplicity,No,Flat,116.43352487445397,39.885956789383116,101112855294
beijing,五芳园,石景山,3090000.0,49157,Low,62.86,1993,2,1,1,1,Plate,Mixed,Simplicity,No,Flat,116.2336357289847,39.90466504655672,101112790753
beijing,西革新里110号院,东城,4880000.0,80943,Middle,60.29,1992,2,1,1,1,Plate,Mixed,Simplicity,No,Flat,116.39663020953145,39.872214775586194,101112798387
beijing,建新南区,顺义,2800000.0,49734,Middle,56.3,1987,2,1,1,1,Plate,Mixed,Simplicity,No,Flat,116.66156898070862,40.1268670388764,101112828377
beijing,新康家园,亦庄开发区,5980000.0,58651,Middle,101.96,2001,2,2,1,1,Plate,Steel/Concrete,Simplicity,No,Flat,116.49546591394459,39.80607572216842,101112834544
beijing,京贸国际城,通州,5300000.0,57267,High,92.55,2011,2,1,1,1,Plate & Tower,Steel/Concrete,Hardcover,Yes,Flat,116.69099001327976,39.92485710792502,101112829512
beijing,老山西里,石景山,2650000.0,52663,Middle,50.32,1982,2,1,1,1,Plate,Steel/Concrete,Simplicity,No,Flat,116.2250352622016,39.91516052342874,101112855552
beijing,石榴园南里小区,丰台,3350000.0,56011,Low,59.81,2002,2,1,1,1,Plate,Mixed,Hardcover,No,Flat,116.42400103943717,39.85055405743201,101112806841
beijing,碧桂园小区A区,房山,2480000.0,26963,Middle,91.98,2003,2,1,1,1,Plate,Mixed,Simplicity,No,Flat,116.17142223343289,39.7667623087384,101112790888
beijing,天通苑北三区,昌平,4460000.0,38393,Middle,116.17,2004,2,1,1,2,Plate,Mixed,Simplicity,No,Flat,116.44012625215514,40.08296368870586,101112843473
beijing,松榆西里,朝阳,5650000.0,61574,First Floor ,91.76,1994,3,1,1,1,Plate,Mixed,Rough,No,Flat,116.47203298590294,39.88113008384472,101112843402
beijing,金汉绿港四区,顺义,6400000.0,38457,Middle,166.42,2009,3,2,1,2,Plate,Steel/Concrete,Simplicity,Yes,Flat,116.6689402960624,40.14291745982546,101112810730
beijing,松榆西里,朝阳,5500000.0,60070,First Floor ,91.56,1994,2,1,1,1,Plate,Mixed,Rough,No,Flat,116.47203298590294,39.88113008384472,101112844184
beijing,芭蕾雨悦都北区,房山,3450000.0,41682,Middle,82.77,2011,2,1,1,1,Plate,Steel/Concrete,Simplicity,Yes,Flat,116.1921783907159,39.76728918957609,101112839143
beijing,胜利小区,顺义,2450000.0,37827,First Floor ,64.77,1991,2,1,1,1,Plate,Mixed,Simplicity,No,Flat,116.6608240159492,40.14214108354894,101112853142
beijing,久敬佳园三区,丰台,4880000.0,50129,High,97.35,2005,2,2,1,2,Plate,Steel/Concrete,Hardcover,No,Flat,116.41421022802282,39.8245330220968,101112841812
beijing,复兴路79号院,海淀,6240000.0,94978,First Floor ,65.7,1990,2,1,1,1,Plate,Mixed,Simplicity,No,Flat,116.27714910890471,39.91451718508861,101112843238
beijing,鲁能7号院水岸公馆,顺义,4120000.0,34174,Top ,120.56,2014,3,2,1,2,Plate,Steel/Concrete,Hardcover,Yes,Flat,116.67313403533572,40.188642034269044,101112849442
beijing,国美第一城2号院,朝阳,5290000.0,69368,High,76.26,2006,2,1,1,1,Plate & Tower,Steel/Concrete,Hardcover,Yes,Flat,116.51820939250729,39.94012184232057,101112846270
beijing,安苑北里,朝阳,5700000.0,81944,Low,69.56,1990,2,2,1,1,Tower,Steel/Concrete,Hardcover,Yes,Flat,116.41864156910356,39.99398868112335,101112848790
beijing,奥林匹克花园三期,朝阳,6980000.0,63059,Low,110.69,2008,2,1,1,1,Plate,Steel/Concrete,Hardcover,Yes,Flat,116.55184096266481,39.96575209921597,101112838768
beijing,和光里,丰台,6490000.0,55580,Low,116.77,2005,3,1,1,2,Plate,Steel/Concrete,Simplicity,Yes,Flat,116.26750148738866,39.86722857085193,101112838761
beijing,新城乐居,通州,3350000.0,42475,Low,78.87,2012,2,1,1,1,Plate,Steel/Concrete,Hardcover,Yes,Flat,116.69693356185599,39.87110898441399,101112831163
beijing,知春路56号院,海淀,9500000.0,123185,High,77.12,1992,3,1,1,1,Plate & Tower,Steel/Concrete,Simplicity,Yes,Flat,116.34418174402589,39.97982828651386,101112800326
beijing,富东嘉园,朝阳,4700000.0,51814,Middle,90.71,2007,2,1,1,1,Plate,Mixed,Hardcover,No,Flat,116.55822737585744,39.952933859817065,101112807698
beijing,三虎桥南路12号院,海淀,8000000.0,96039,Top ,83.3,1980,3,1,1,1,Plate,Mixed,Simplicity,No,Flat,116.3222700963654,39.94108814338823,101112805420
beijing,万源南里,丰台,3680000.0,46174,High,79.7,1988,3,1,1,1,Plate,Mixed,Simplicity,No,Flat,116.43218999246615,39.80344305110091,101112799742
beijing,珠江绿洲,朝阳,6350000.0,53537,Low,118.61,2004,3,1,1,2,Tower,Steel/Concrete,Hardcover,Yes,Flat,116.56775076172148,39.913965431139495,101112792731
beijing,天之骄子,朝阳,12800000.0,86780,Middle,147.5,2006,3,2,1,2,Plate,Steel/Concrete,Hardcover,Yes,Flat,116.47206298930698,39.90150314893908,101112814048
beijing,西廊下胡同二号院,西城,13500000.0,120860,Middle,111.7,1954,3,1,1,2,Plate,Mixed,Simplicity,No,Flat,116.36769857380214,39.93702079013814,101112804118
beijing,惠新北里,朝阳,10800000.0,86901,Low,124.28,1997,3,2,1,1,Plate,Mixed,Simplicity,No,Flat,116.42646122873735,39.99085789089197,101112831425
beijing,银枫家园,朝阳,8300000.0,50420,High,164.62,2002,3,2,1,2,Plate & Tower,Steel/Concrete,Simplicity,Yes,Flat,116.50540566441249,39.99823522765152,101112792376
beijing,西派国际公寓,西城,26800000.0,138616,High,193.34,2009,3,2,1,2,Plate & Tower,Steel/Concrete,Hardcover,Yes,Flat,116.36494167419202,39.93551619909198,101112855459
beijing,禧福汇,朝阳,8300000.0,94760,Middle,87.59,2009,2,1,1,1,Plate & Tower,Steel/Concrete,Hardcover,Yes,Flat,116.48260828751917,39.889385492514386,101112837090
beijing,左家庄西街,朝阳,3860000.0,65203,Middle,59.2,1995,2,1,1,1,Plate,Mixed,Hardcover,No,Flat,116.44679228270047,39.95652959333853,101112830971
beijing,随园,昌平,4260000.0,47801,Top ,89.12,2009,3,3,1,2,Plate,Steel/Concrete,Hardcover,Yes,Duplex,116.27324669010827,40.23662670661484,101112835783
beijing,盛嘉华苑,大兴,2700000.0,34857,Middle,77.46,2012,2,2,1,1,Plate & Tower,Steel/Concrete,Simplicity,Yes,Flat,116.3613158436621,39.74205251110924,101112795891
beijing,福润四季B区,朝阳,3900000.0,52328,First Floor ,74.53,2015,2,1,1,1,Plate,Steel/Concrete,Hardcover,Yes,Flat,116.58800997639635,39.963827098290054,101112803599
beijing,华业东方玫瑰A区,通州,4220000.0,44170,Low,95.54,2011,3,1,1,1,Plate & Tower,Steel/Concrete,Simplicity,Yes,Flat,116.6921314900913,39.88663417004858,101112793299
beijing,索家坟,海淀,7250000.0,114174,Low,63.5,1987,2,1,1,1,Tower,Steel/Concrete,Simplicity,Yes,Flat,116.36730296005555,39.95765508627224,101112830108
beijing,华严北里1号院,朝阳,10280000.0,87999,High,116.82,2004,2,2,1,1,Plate & Tower,Steel/Concrete,Hardcover,Yes,Flat,116.393667508129,39.98677237560239,101112830231
beijing,天福园,朝阳,5630000.0,106913,High,52.66,1994,2,1,1,1,Plate,Mixed,Hardcover,No,Flat,116.29813819680646,39.83000414494122,101112840918
beijing,彩虹城一区,丰台,4950000.0,59718,Top ,82.89,2003,2,1,1,1,Plate & Tower,Steel/Concrete,Hardcover,Yes,Flat,116.422679632032,39.84565005434085,101112801806
beijing,金融街融汇,大兴,3200000.0,43349,High,73.82,2014,2,1,1,1,Plate & Tower,Steel/Concrete,Hardcover,Yes,Flat,116.64719528407402,39.922344884454276,101112843117
beijing,国瑞城中区,东城,11800000.0,128122,Middle,92.1,2006,3,2,1,1,Tower,Steel/Concrete,Simplicity,Yes,Flat,116.43058445102815,39.905126242351,101112853879
beijing,金隅景和园,朝阳,4680000.0,60240,Middle,77.69,2011,2,1,1,1,Plate,Steel/Concrete,Hardcover,Yes,Flat,116.55655401235346,39.95683710494818,101112804761
beijing,京棉新城三厂,朝阳,5320000.0,62245,Middle,85.47,2009,2,1,1,1,Tower,Steel/Concrete,Hardcover,Yes,Flat,116.51301745615129,39.92366917208881,101112809924
beijing,安华里社区,朝阳,6000000.0,88042,Low,68.15,1983,3,1,1,1,Plate,Mixed,Simplicity,No,Flat,116.41119003506773,39.973667752503346,101112829907
beijing,怡馨家园,顺义,5120000.0,40443,Low,126.6,2004,3,2,1,2,Plate,Steel/Concrete,Simplicity,Yes,Split-Level,116.65454351297619,40.126016689846914,101112811113
beijing,王府公寓四区,昌平,5950000.0,23469,Middle,253.53,1996,5,3,1,3,Plate,Mixed,Hardcover,No,Duplex,116.41660942237887,40.11157304901196,101112613347
beijing,本家润园一期,东城,26990000.0,117553,High,229.6,2006,4,2,1,3,Plate,Steel/Concrete,Simplicity,Yes,Duplex,116.4433549418191,39.90268123244805,101112600524
beijing,望京新城,朝阳,8480000.0,64243,Low,132,1998,4,1,1,2,Tower,Steel/Concrete,Hardcover,Yes,Flat,116.4791990384477,40.00422710311743,101112555555
beijing,天天家园,东城,9700000.0,61764,High,157.05,2002,3,1,1,1,Tower,Steel/Concrete,Simplicity,Yes,Flat,116.42449537695933,40.09320679799463,101112693040
beijing,万科城市花园,顺义,6400000.0,40207,Middle,159.18,2000,3,1,1,2,Plate,Mixed,Hardcover,Yes,Flat,116.55958103243044,40.11010606284613,101112747029
beijing,海淀南路,海淀,14500000.0,128319,Middle,113,1988,4,1,1,1,Plate,Steel/Concrete,Simplicity,Yes,Flat,116.3157787610892,39.98172394609244,101112700121
beijing,乔建里,海淀,7950000.0,105299,Low,75.5,1989,3,1,1,1,Plate,Mixed,Hardcover,No,Flat,116.33247071475341,39.90773139325084,101112813021
beijing,首城国际B区,朝阳,9500000.0,107067,Top ,88.73,2011,2,1,1,1,Plate,Steel/Concrete,Hardcover,Yes,Flat,116.47773623775524,39.894692807590054,101112852672
beijing,学院南路乙10号院,海淀,5650000.0,99298,Middle,56.9,1982,3,1,1,1,Plate,Mixed,Simplicity,No,Flat,116.37238494381715,39.96332676053473,101112830482
beijing,华贸城,朝阳,18500000.0,87256,High,212.02,2012,4,2,1,3,Plate & Tower,Steel/Concrete,Hardcover,Yes,Flat,116.43733997795484,40.05381305833712,101112666643
beijing,重聚园,石景山,7380000.0,56152,First Floor ,131.43,2007,3,1,1,2,Plate,Mixed,Simplicity,No,Flat,116.23352927978176,39.90020084716254,101112707070
beijing,丰汇园小区,西城,28100000.0,179898,Top ,156.2,1999,3,2,1,3,Plate,Mixed,Hardcover,No,Duplex,116.37407636326189,39.92151617132381,101112726436
beijing,天通苑东二区,昌平,6350000.0,32010,High,198.38,2001,4,2,1,2,Plate,Mixed,Hardcover,No,Duplex,116.44587639555506,40.074105043223284,101112718538
beijing,幸福艺居,通州,6600000.0,36897,Middle,178.88,2004,5,2,1,2,Plate,Mixed,Simplicity,No,Duplex,116.69616155810071,39.894425085138685,101112788548
beijing,首开常青藤四期,朝阳,9700000.0,61517,First Floor ,157.68,2014,3,2,1,2,Plate,Steel/Concrete,Hardcover,Yes,Duplex,116.5393574804843,39.97020770546913,101112723407
beijing,大苑海淀名著,海淀,15300000.0,107724,Low,142.03,2014,4,2,1,2,Plate,Steel/Concrete,Hardcover,Yes,Flat,116.25152997474345,39.934865653860356,101112706593
beijing,芭蕾雨悦都北区,房山,5900000.0,67122,First Floor ,87.9,2011,3,2,1,2,Plate,Steel/Concrete,Hardcover,Yes,Duplex,116.1921783907159,39.76728918957609,101112707612
beijing,幸福家园二期,东城,21600000.0,115453,Middle,187.09,2003,4,1,1,3,Plate & Tower,Steel/Concrete,Hardcover,Yes,Flat,116.43802601387281,39.89885409890755,101112703787
beijing,K2清水湾,通州,7570000.0,66738,High,113.43,2012,3,2,1,2,Tower,Steel/Concrete,Hardcover,Yes,Flat,116.84822473855766,40.40553105757267,101112712316
beijing,K2玉蘭湾,通州,8150000.0,59734,Middle,136.44,2015,3,2,1,1,Plate,Steel/Concrete,Hardcover,Yes,Flat,116.66641722537653,39.893071441035666,101112409518
beijing,小关北里,朝阳,6350000.0,85580,First Floor ,74.2,1997,2,1,1,1,Plate,Mixed,Simplicity,No,Flat,116.42182803840855,39.98772004581759,101112580379
beijing,城市芳庭,丰台,7600000.0,67870,Low,111.98,1999,3,1,1,2,Tower,Steel/Concrete,Simplicity,Yes,Flat,116.44344800626995,39.870803789808484,101112591997
beijing,万科星园,朝阳,14000000.0,93197,Middle,150.22,2003,3,1,1,2,Tower,Steel/Concrete,Simplicity,Yes,Flat,116.41929796093969,40.03496277744816,101112663497
beijing,南顶村,丰台,4350000.0,50611,High,85.95,1997,3,1,1,1,Tower,Steel/Concrete,Simplicity,Yes,Flat,116.41487533342242,39.84881904928931,101112563158
beijing,运河明珠,通州,5800000.0,52121,Middle,111.28,2008,2,2,1,1,Tower,Steel/Concrete,Hardcover,Yes,Flat,116.69663038374637,39.9066577275671,101112712738
beijing,芳星园三区,丰台,5500000.0,66845,High,82.28,1991,3,1,1,1,Tower,Steel/Concrete,Simplicity,Yes,Flat,116.44201008864012,39.86650011634015,101112748248
beijing,后现代城D区,朝阳,7100000.0,77469,High,91.65,2006,2,2,1,1,Tower,Steel/Concrete,Simplicity,Yes,Flat,116.4919611749974,39.904069901484725,101112709677
beijing,天赐良园二期,通州,3950000.0,50357,First Floor ,78.44,2002,2,1,1,1,Plate,Mixed,Simplicity,No,Flat,116.65022787364515,39.93410099418256,101112712876
beijing,安苑北里,朝阳,6150000.0,81103,High,75.83,1989,3,1,1,1,Tower,Steel/Concrete,Simplicity,Yes,Flat,116.41864156910356,39.99398868112335,101112699433
beijing,东大桥东里,朝阳,3200000.0,87194,Middle,36.7,1979,1,1,1,1,Plate,Brick/Concrete,Simplicity,No,Flat,116.4573576382781,39.9266786383526,101112804873
beijing,芳城园一区,丰台,5450000.0,54041,High,100.85,1993,3,1,1,1,Tower,Steel/Concrete,Simplicity,Yes,Flat,116.44228631758443,39.875385302854944,101112718513
beijing,农光里,朝阳,5100000.0,65520,Middle,77.84,1998,2,1,1,1,Plate,Steel/Concrete,Hardcover,No,Flat,116.47097262607896,39.888028772341514,101112715787
beijing,万年花城五期,丰台,12000000.0,87752,High,136.75,2011,3,1,1,2,Plate,Steel/Concrete,Rough,Yes,Flat,116.31917911693611,39.85017959798714,101112761037
beijing,兴海家园月苑,大兴,3950000.0,51120,Middle,77.27,2006,2,1,1,1,Plate,Mixed,Hardcover,No,Flat,116.34383400996296,39.799749061314074,101112740916
beijing,春风胡同社区,西城,7200000.0,110075,Middle,65.41,2004,2,1,1,1,Plate & Tower,Steel/Concrete,Hardcover,Yes,Flat,116.43787437990272,39.937895715556806,101112799011
beijing,大方居,通州,2790000.0,31028,Middle,89.92,2008,2,1,1,1,Plate & Tower,Steel/Concrete,Hardcover,Yes,Flat,116.63632686536988,39.88197769922303,101112800686
beijing,三义里,西城,7100000.0,108880,Middle,65.21,1981,2,1,1,1,Tower,Steel/Concrete,Simplicity,Yes,Flat,116.33547599583703,39.89495118747271,101112836578
beijing,城子二斜井,门头沟,1770000.0,31256,High,56.63,1992,2,1,1,1,Plate,Mixed,Simplicity,No,Flat,116.09770916972569,39.95362571391015,101112780660
beijing,华威北里,朝阳,4950000.0,65038,High,76.11,1999,2,1,1,1,Plate & Tower,Steel/Concrete,Hardcover,Yes,Flat,116.46375743622282,39.885020639306674,101112726267
beijing,建茗苑,丰台,5790000.0,61919,First Floor ,93.51,2008,3,2,1,1,Tower,Steel/Concrete,Simplicity,Yes,Flat,116.33175494492306,39.87880879419794,101112756246
beijing,教场口9号院,西城,12600000.0,147905,Middle,85.19,2005,3,1,1,1,Tower,Steel/Concrete,Simplicity,Yes,Flat,116.38717761014162,39.96056543528639,101112714958
beijing,清源西里,大兴,2550000.0,42930,Low,59.4,1992,2,1,1,1,Plate & Tower,Mixed,Simplicity,No,Flat,116.34175595982673,39.74854144800043,101112837500
beijing,昌盛园二区,昌平,3490000.0,35817,High,97.44,1998,2,2,1,1,Plate,Mixed,Simplicity,No,Flat,116.26324208198255,40.21770365517781,101112721547
beijing,昌盛园二区,昌平,3050000.0,40516,Middle,75.28,1999,2,1,1,1,Plate,Mixed,Hardcover,No,Flat,116.26324208198255,40.21770365517781,101112802991
beijing,通惠家园,朝阳,4420000.0,58412,Low,75.67,2001,2,1,1,1,Plate & Tower,Steel/Concrete,Simplicity,Yes,Flat,116.51253111354818,39.9161352039967,101112759887
beijing,嘉美风尚中心,朝阳,11980000.0,73497,High,163,2006,3,2,1,2,Plate,Steel/Concrete,Hardcover,Yes,Flat,116.48865109885423,39.993495268235336,101112697753
beijing,飘HOME,朝阳,4250000.0,66293,Low,64.11,2004,1,1,1,1,Tower,Steel/Concrete,Hardcover,Yes,Flat,116.4946163864238,39.97682525420871,101112746233
beijing,芍药居,朝阳,7100000.0,101313,Middle,70.08,1997,2,2,1,1,Tower,Steel/Concrete,Hardcover,Yes,Flat,116.449026663148,39.98481279702098,101112778757
beijing,安华里社区,朝阳,3700000.0,79196,Low,46.72,1992,1,1,1,1,Plate & Tower,Steel/Concrete,Hardcover,Yes,Flat,116.41119003506773,39.973667752503346,101112714622
beijing,管庄东里,朝阳,3600000.0,51473,First Floor ,69.94,1991,3,1,1,1,Plate,Mixed,Hardcover,No,Flat,116.6033718989225,39.92487730438378,101112699712
beijing,华润小区,丰台,3350000.0,52931,Low,63.29,1996,2,1,1,1,Plate,Mixed,Simplicity,No,Flat,116.40008895523651,39.859225111933085,101112699434
beijing,听涛雅苑,亦庄开发区,6900000.0,50347,Low,137.05,2000,3,1,1,2,Plate,Steel/Concrete,Hardcover,Yes,Split-Level,116.64959043605528,39.89750801591153,101112734125
beijing,康静里,朝阳,3090000.0,51024,Middle,60.56,1993,2,1,1,1,Plate,Mixed,Hardcover,No,Flat,116.53915428377795,39.96777160480555,101112794455
beijing,永安东里,海淀,11800000.0,99747,Middle,118.3,1999,3,2,1,1,Plate,Mixed,Simplicity,No,Flat,116.28697198982577,39.93512505666598,101112760510
beijing,佟馨家园,大兴,2680000.0,30636,First Floor ,87.48,2016,2,2,1,1,Plate,Steel/Concrete,Simplicity,Yes,Flat,116.31759226025274,39.73100852917105,101112720251
beijing,园林小区,石景山,4990000.0,62119,Top ,80.33,2003,2,2,1,1,Plate,Mixed,Simplicity,No,Flat,116.25092298971036,39.9147469198338,101112760334
beijing,格兰晴天,通州,2820000.0,58470,High,48.23,2004,1,1,1,1,Plate & Tower,Steel/Concrete,Hardcover,Yes,Flat,116.6800355369078,39.89573600861571,101112721545
beijing,名都家苑,丰台,8700000.0,74252,Middle,117.17,2006,2,1,1,2,Plate,Steel/Concrete,Hardcover,Yes,Flat,116.37898299778794,39.8450951101738,101112731597
beijing,国美第一城3号院,朝阳,7390000.0,66975,Middle,110.34,2007,2,2,1,1,Plate & Tower,Steel/Concrete,Hardcover,Yes,Flat,116.52147051100017,39.93969283176998,101112731964
beijing,芳古园一区,丰台,4380000.0,69195,Middle,63.3,1992,2,1,1,1,Tower,Steel/Concrete,Hardcover,Yes,Flat,116.43110403093513,39.874733074373154,101112737396
beijing,天通苑北一区,昌平,4580000.0,40478,Middle,113.15,2004,3,1,1,2,Tower,Steel/Concrete,Simplicity,Yes,Flat,116.42363345282249,40.08074377094799,101112763384
beijing,鸿业兴园二区,丰台,4450000.0,52041,Low,85.51,2010,2,1,1,1,Tower,Steel/Concrete,Simplicity,Yes,Flat,116.31310782931638,39.84481389703488,101112745847
beijing,建设三里,丰台,2210000.0,29873,High,73.98,1999,2,1,1,1,Plate,Brick/Concrete,Simplicity,No,Flat,116.1974532406705,39.837451253352725,101112757977
beijing,福润四季B区,朝阳,3690000.0,49050,Low,75.23,2015,2,1,1,1,Plate,Steel/Concrete,Simplicity,Yes,Flat,116.58800997639635,39.963827098290054,101112698899
beijing,金隅通和园,通州,3150000.0,37608,Low,83.76,NaN,2,1,1,1,Plate & Tower,Steel/Concrete,Hardcover,Yes,Flat,116.71026890715162,39.88240382145911,101112781832
beijing,芳园南里西区,朝阳,2880000.0,60013,Middle,47.99,1996,1,1,1,1,Plate,Mixed,Simplicity,No,Flat,116.48838636822043,39.976054363234056,101112823840
beijing,宏大北园,大兴,3880000.0,41356,Top ,93.82,2006,2,1,1,1,Plate,Steel/Concrete,Other,Yes,Flat,116.34767579313748,39.80573399894347,101112723923
beijing,碧桂园小区C区,房山,2690000.0,29186,High,92.17,2007,2,1,1,1,Plate & Tower,Steel/Concrete,Simplicity,Yes,Flat,116.17667354778312,39.76883264973147,101112768863
beijing,冠城南园,海淀,9500000.0,132073,High,71.93,1998,1,1,1,1,Plate & Tower,Steel/Concrete,Rough,Yes,Flat,116.38405626798608,39.97890324344601,101112852061
beijing,农展南里,朝阳,4750000.0,73758,Top ,64.4,1980,2,1,1,1,Plate,Steel/Concrete,Hardcover,No,Flat,116.47025254438216,39.940087267102626,101112845730
beijing,首开国风美唐二期,昌平,6250000.0,75584,Middle,82.69,2014,2,1,1,1,Plate,Steel/Concrete,Simplicity,Yes,Flat,116.36684096153176,40.08549404374912,101112795495
beijing,西木小区,海淀,5980000.0,96608,First Floor ,61.9,1992,2,1,1,1,Tower,Mixed,Hardcover,No,Flat,116.27853645193433,39.93916140536714,101112842890
beijing,双峪路小区,门头沟,1820000.0,33754,Top ,53.92,1981,2,1,1,1,Plate,Mixed,Simplicity,No,Flat,116.11543103065709,39.94123508577637,101112795819
beijing,凯盛家园,海淀,5080000.0,65372,Low,77.71,2013,2,1,1,1,Plate,Steel/Concrete,Hardcover,Yes,Flat,116.17806403488203,40.055980084788814,101112798250
beijing,安慧里四区,朝阳,4590000.0,86588,High,53.01,1989,2,1,1,1,Plate,Mixed,Hardcover,No,Flat,116.41929418805655,39.99693547177334,101112813815
beijing,乔建里,海淀,5490000.0,110021,High,49.9,1991,1,1,1,1,Tower,Steel/Concrete,Simplicity,Yes,Flat,116.33247071475341,39.90773139325084,101112803230
beijing,长城国际,通州,2330000.0,43406,High,53.68,2009,1,1,1,1,Tower,Steel/Concrete,Hardcover,Yes,Flat,116.32356949528558,39.903923778112734,101112804483
beijing,恋日花都,丰台,5400000.0,78764,Middle,68.56,2006,2,1,1,1,Tower,Steel/Concrete,Simplicity,Yes,Flat,116.3578362572692,39.849596993714144,101112725684
beijing,慧时欣园二期,丰台,6650000.0,66414,Middle,100.13,2003,2,1,1,2,Tower,Steel/Concrete,Simplicity,Yes,Flat,116.41902236080924,39.85326827291929,101112750783
beijing,建材城东二里,海淀,4600000.0,69007,Middle,66.66,1998,2,1,1,1,Plate,Mixed,Simplicity,No,Flat,116.38180529403918,40.069466952885065,101112841410
beijing,枣园北里,大兴,2530000.0,31792,High,79.58,1996,2,1,1,1,Plate,Mixed,Simplicity,No,Flat,116.32993425931542,39.759658033040274,101112699959
beijing,新桥南大街,门头沟,1850000.0,33364,High,55.45,1989,2,1,1,1,Plate,Mixed,Simplicity,No,Flat,116.11551807825761,39.93411265446014,101112849034
beijing,珠江丽景家园,通州,3200000.0,40491,High,79.03,2010,2,1,1,1,Plate & Tower,Steel/Concrete,Simplicity,Yes,Flat,116.68897322757931,39.937424714979855,101112838397
beijing,花家地北里,朝阳,3450000.0,79862,Low,43.2,1994,1,1,1,1,Tower,Mixed,Hardcover,Yes,Flat,116.47344709843675,39.99292411812027,101112818889
beijing,福润四季A区,朝阳,3890000.0,51050,Middle,76.2,2015,2,1,1,1,Plate,Steel/Concrete,Hardcover,Yes,Flat,116.58441495774542,39.96398007454317,101112714597
beijing,亮马水晶,朝阳,5100000.0,73329,Middle,69.55,2003,2,1,1,1,Plate,Steel/Concrete,Hardcover,Yes,Flat,116.49728848599376,39.96646974394011,101112788969
beijing,富力阳光美园,朝阳,4660000.0,51957,Top ,89.69,2010,3,1,1,1,Tower,Steel/Concrete,Hardcover,Yes,Flat,116.61305697977832,39.933898088559005,101112755072
beijing,凯盛家园,海淀,4000000.0,65953,High,60.65,2013,1,1,1,1,Plate & Tower,Steel/Concrete,Simplicity,Yes,Flat,116.17806403488203,40.055980084788814,101112819208
beijing,怡秀园小区,海淀,9500000.0,133841,High,70.98,1995,2,1,1,1,Tower,Steel/Concrete,Simplicity,Yes,Flat,116.31111520803415,39.9699812687492,101112842714
beijing,国美第一城3号院,朝阳,6790000.0,67322,High,100.86,2007,2,1,1,1,Plate & Tower,Steel/Concrete,Hardcover,Yes,Flat,116.52147051100017,39.93969283176998,101112774159
beijing,丽都壹号,朝阳,8250000.0,93189,Low,88.53,2013,2,1,1,2,Plate,Steel/Concrete,Hardcover,Yes,Flat,116.51295933578479,39.98502764373342,101112717994
beijing,北街家园一区,昌平,6080000.0,44158,Middle,137.69,2008,4,2,1,2,Plate,Steel/Concrete,Hardcover,Yes,Flat,116.28357280177603,39.638007264367545,101112770003
beijing,金隅糖,房山,4000000.0,44778,High,89.33,2017,3,1,1,1,Plate,Steel/Concrete,Simplicity,Yes,Flat,116.19278645371561,39.7447290901783,101112757480
beijing,考拉社区,西城,4450000.0,129625,High,34.33,2006,1,1,1,1,Plate & Tower,Steel/Concrete,Hardcover,Yes,Flat,116.35311206859222,39.88238001349813,101112818978
beijing,石景山路23号院,石景山,4400000.0,59856,First Floor ,73.51,1995,2,1,1,1,Plate & Tower,Steel/Concrete,Simplicity,Yes,Flat,116.21934593408471,39.915137211167284,101112708856
beijing,海户西里34号院,丰台,4480000.0,53911,Low,83.1,1998,3,1,1,1,Tower,Steel/Concrete,Simplicity,Yes,Flat,116.39558089886525,39.85660494794929,101112723159
beijing,燕莎后,朝阳,8800000.0,79819,Middle,110.25,2005,2,1,1,2,Tower,Steel/Concrete,Simplicity,Yes,Flat,116.50655828021233,39.96501834076332,101112760919
beijing,双合家园,朝阳,4150000.0,46426,High,89.39,2013,2,2,1,1,Plate,Steel/Concrete,Simplicity,Yes,Flat,116.40870604067155,40.0897760414017,101112779876
beijing,三义西里,西城,8500000.0,101384,First Floor ,83.84,2003,2,1,1,1,Plate,Mixed,Hardcover,No,Flat,116.3347829531361,39.89447546049565,101112805985
beijing,枣园东里,大兴,3800000.0,42115,Middle,90.23,2001,2,2,1,1,Plate,Mixed,Simplicity,No,Flat,116.34166702758125,39.759566096222045,101112773583
beijing,水清木华园,海淀,19500000.0,131261,Middle,148.56,1999,3,2,1,2,Plate,Steel/Concrete,Hardcover,Yes,Flat,116.33388617474549,39.99619424324399,101112783379
beijing,民安小区民安街,东城,9200000.0,124645,High,73.81,2002,2,1,1,1,Plate,Steel/Concrete,Simplicity,No,Flat,116.43699350151964,39.94904781376192,101112821652
beijing,嘉园二里,丰台,3450000.0,56071,Middle,61.53,1996,2,1,1,1,Plate & Tower,Mixed,Simplicity,No,Flat,116.37729023088494,39.853404950195234,101112820078
beijing,松榆西里,朝阳,2670000.0,69315,First Floor ,38.52,1987,1,1,1,1,Plate,Brick/Concrete,Simplicity,No,Flat,116.47203298590294,39.88113008384472,101112702894
beijing,朝阳无限,朝阳,6300000.0,63038,Low,99.94,2003,2,1,1,1,Tower,Steel/Concrete,Simplicity,Yes,Flat,116.51845103668948,39.924010096236984,101112742103
beijing,芍药居北里,朝阳,5780000.0,83890,Middle,68.9,1997,2,1,1,1,Tower,Steel/Concrete,Simplicity,Yes,Flat,116.44254296346864,39.99194888164441,101112723384
beijing,清和园,大兴,2630000.0,34002,Top ,77.35,1997,2,1,1,1,Plate,Mixed,Simplicity,No,Flat,116.3826487130825,39.91686893762386,101112721882
beijing,领秀慧谷A区,昌平,3980000.0,62707,High,63.47,2011,1,1,1,1,Plate,Steel/Concrete,Hardcover,Yes,Flat,116.31172857103635,40.103995047778334,101112737486
beijing,芳群公寓,丰台,6220000.0,48682,High,127.77,2000,2,1,1,2,Tower,Steel/Concrete,Hardcover,Yes,Flat,116.43134235138692,39.86512383314395,101112764420
beijing,保利嘉园一号院,朝阳,4790000.0,53640,Middle,89.3,2009,2,1,1,1,Tower,Steel/Concrete,Simplicity,Yes,Flat,116.6147340263349,39.93687805700518,101112728421
beijing,青年湖东里,东城,5660000.0,121408,Middle,46.62,1988,1,1,1,1,Tower,Steel/Concrete,Rough,Yes,Flat,116.413109624112,39.9626012711467,101112797625
beijing,北沙滩4号院,朝阳,4700000.0,63343,Middle,74.2,1992,3,1,1,1,Plate,Mixed,Simplicity,No,Flat,116.37519933497991,40.011446385107234,101112726574
beijing,东风家园,朝阳,5880000.0,55985,High,105.03,2000,2,2,1,1,Tower,Steel/Concrete,Simplicity,Yes,Flat,116.50155426936901,39.96391931266559,101112708260
beijing,南太平庄北巷,朝阳,4800000.0,52425,Middle,91.56,2004,2,1,1,1,Plate,Steel/Concrete,Hardcover,No,Flat,116.4133836971231,39.910924547299565,101112780969
beijing,北苑家园茉藜园,朝阳,5350000.0,47603,Low,112.39,2003,2,2,1,2,Tower,Steel/Concrete,Other,Yes,Flat,116.4305310018503,40.04557204907456,101112756063
beijing,万科蓝蓝沁家园,丰台,7500000.0,79332,High,94.54,2014,3,1,1,1,Plate,Steel/Concrete,Hardcover,Yes,Flat,116.30408003860221,39.82189309743244,101112719036
beijing,太平桥东里,丰台,3850000.0,65925,Middle,58.4,1989,2,1,1,1,Plate,Mixed,Simplicity,No,Flat,116.32952606929169,39.89110991710682,101112845106
beijing,杨庄北区,石景山,3490000.0,59344,High,58.81,2000,1,1,1,1,Tower,Steel/Concrete,Simplicity,Yes,Flat,116.20139895779252,39.933243101748964,101112796174
beijing,老山西里,石景山,2550000.0,50747,High,50.25,1982,2,1,1,1,Plate,Steel/Concrete,Simplicity,No,Flat,116.2250352622016,39.91516052342874,101112753232
beijing,DBC加州小镇C区,通州,3280000.0,50516,High,64.93,2010,1,1,1,1,Plate,Steel/Concrete,Hardcover,Yes,Flat,116.68976634151409,39.87055701657621,101112806763
beijing,天通苑中苑,昌平,4350000.0,46455,Low,93.64,2008,2,1,1,2,Plate,Steel/Concrete,Simplicity,Yes,Flat,116.43371495589989,40.07866407586977,101112783550
beijing,青塔东里,丰台,5460000.0,57149,Middle,95.54,1998,3,1,1,1,Plate,Mixed,Hardcover,No,Flat,116.27695399694795,39.89996006182523,101112743381
beijing,龙博苑三区,昌平,3980000.0,67561,First Floor ,58.91,2005,1,1,1,1,Plate,Mixed,Simplicity,No,Flat,116.351528984792,40.07222832620872,101112795227
beijing,清逸园,大兴,3450000.0,37917,Middle,90.99,1998,3,1,1,1,Plate,Mixed,Rough,No,Flat,116.32304398656224,39.65215403026741,101112749443
beijing,北京方向,丰台,5420000.0,64833,Middle,83.6,2015,2,1,1,1,Plate,Steel/Concrete,Hardcover,Yes,Flat,116.3069374585989,39.819330933771774,101112801555
beijing,金鱼池东区,东城,6800000.0,110732,First Floor ,61.41,2003,2,1,1,1,Plate,Steel/Concrete,Simplicity,No,Flat,116.41730300406313,39.8960114757828,101112767145
beijing,万年花城二期,丰台,12100000.0,76875,High,157.4,2005,4,2,1,2,Plate & Tower,Steel/Concrete,Hardcover,Yes,Flat,116.32548297585238,39.852767051320996,101112770320
beijing,西潞园一里,房山,2040000.0,32351,Middle,63.06,1993,2,1,1,1,Plate,Mixed,Simplicity,No,Flat,116.13708297819463,39.739036058782574,101112844256
beijing,鹿海园三里,大兴,3850000.0,48983,High,78.6,2005,2,1,1,1,Plate,Mixed,Simplicity,No,Flat,116.50633370383484,39.7655405534936,101112741352
beijing,光华欣居,朝阳,4350000.0,70377,Middle,61.81,1994,2,1,1,1,Plate,Mixed,Hardcover,Yes,Flat,116.47920748251948,39.918851161679946,101112698930
beijing,左安浦园,东城,10500000.0,82671,High,127.01,2004,3,1,1,1,Plate,Steel/Concrete,Hardcover,Yes,Flat,116.4445752898544,39.87960819773751,101112731926
beijing,蒲安北里,丰台,3300000.0,67458,High,48.92,1992,1,1,1,1,Tower,Steel/Concrete,Simplicity,Yes,Flat,116.42688612724356,39.87253830695766,101112816243
beijing,葡东小区,门头沟,2700000.0,36237,High,74.51,2000,2,1,1,1,Plate,Mixed,Simplicity,No,Flat,116.1253086183837,39.930621777286404,101112754208
beijing,格调,西城,12500000.0,130644,Middle,95.68,2005,2,1,1,1,Plate & Tower,Steel/Concrete,Hardcover,Yes,Flat,116.56087108897331,39.76669291268304,101112769728
beijing,荣丰2008,西城,5500000.0,158228,Middle,34.76,2007,1,1,1,2,Tower,Steel/Concrete,Simplicity,Yes,Duplex,116.34332601819709,39.90028007088735,101112810973
beijing,东亚逸品阁,通州,4580000.0,50126,Middle,91.37,2013,2,2,1,1,Plate & Tower,Steel/Concrete,Simplicity,Yes,Flat,116.69569416974386,39.93954401896632,101112853029
beijing,二七剧场路,西城,7150000.0,164368,High,43.5,1987,1,1,1,1,Tower,Mixed,Simplicity,Yes,Flat,116.35291776511042,39.91630668822297,101112792304
beijing,小街之春,通州,2810000.0,36151,First Floor ,77.73,2003,2,1,1,1,Plate,Mixed,Simplicity,No,Flat,116.1957520296957,39.920799088711846,101112776755
beijing,郁花园一里,大兴,6000000.0,40285,High,148.94,1998,3,1,1,2,Plate,Mixed,Simplicity,No,Flat,116.34483400365667,39.78059608904561,101112797358
beijing,崇文门东大街,东城,4620000.0,114926,High,40.2,1980,1,1,1,1,Plate,Mixed,Simplicity,Yes,Flat,116.43398381873901,39.906754170683485,101112827154
beijing,驼房营南里,朝阳,5050000.0,62392,Middle,80.94,1999,2,1,1,1,Plate,Mixed,Hardcover,No,Flat,116.51149033678432,39.96566203018846,101112793155
beijing,烟厂宿舍,朝阳,2500000.0,60329,High,41.44,1994,1,1,1,1,Plate,Mixed,Hardcover,No,Flat,116.58737074219547,39.92292949429596,101112784441
beijing,当代名筑,通州,3450000.0,54076,Middle,63.8,2005,2,1,1,1,Plate & Tower,Steel/Concrete,Hardcover,Yes,Flat,116.67170528042212,39.89572161592721,101112800136
beijing,彩虹新城,大兴,4350000.0,47971,Middle,90.68,2007,2,1,1,1,Plate,Steel/Concrete,Simplicity,Yes,Flat,116.34198098535698,39.754378121596766,101112779315
beijing,柳芳北街9号院,朝阳,4550000.0,81091,Low,56.11,1993,2,1,1,1,Plate,Mixed,Other,No,Flat,116.43927097547909,39.96632831696377,101112788469
beijing,广和里七巷,朝阳,2680000.0,62911,Middle,42.6,1986,1,1,1,1,Plate,Mixed,Simplicity,No,Flat,116.4543756763072,39.8947046890036,101112823302
beijing,潘家园东里,朝阳,5200000.0,60898,Low,85.39,1994,3,1,1,1,Tower,Steel/Concrete,Simplicity,Yes,Flat,116.46145400123415,39.8844760510656,101112801878
beijing,金隅景和园,朝阳,5460000.0,61081,Middle,89.39,2011,3,1,1,1,Plate,Steel/Concrete,Hardcover,Yes,Flat,116.55655401235346,39.95683710494818,101112814242
beijing,天堂河东区,大兴,2400000.0,29499,Middle,81.36,2007,2,1,1,1,Plate,Mixed,Simplicity,No,Flat,116.3373457289255,39.67815386234997,101112802628
beijing,金隅通和园,通州,3190000.0,38513,Middle,82.83,2012,2,2,1,1,Plate,Steel/Concrete,Hardcover,Yes,Flat,116.71026890715162,39.88240382145911,101112801101
beijing,芍药居北里,朝阳,8080000.0,91892,Middle,87.93,1998,3,1,1,1,Tower,Steel/Concrete,Hardcover,Yes,Flat,116.44254296346864,39.99194888164441,101112797423
beijing,华严北里小区,朝阳,9450000.0,90164,Middle,104.81,1991,3,1,1,2,Plate,Mixed,Simplicity,No,Flat,116.39170300380923,39.99039893570479,101112832112
beijing,金汉绿港三区,顺义,3990000.0,41948,Middle,95.12,2009,3,1,1,1,Plate,Steel/Concrete,Hardcover,Yes,Flat,116.6662403490216,40.14219885877206,101112831715
beijing,彩虹城四区,丰台,4260000.0,65873,Low,64.67,2005,2,1,1,1,Tower,Steel/Concrete,Hardcover,Yes,Flat,116.41939919997067,39.84534329140333,101112795133
beijing,宋家庄家园二区,丰台,4500000.0,65105,High,69.12,2010,2,1,1,1,Tower,Steel/Concrete,Simplicity,Yes,Flat,116.43349064901403,39.85481858149026,101112810946
beijing,秀蝶双座,丰台,5290000.0,57338,Low,92.26,2007,2,2,1,1,Tower,Steel/Concrete,Hardcover,Yes,Flat,116.2544736320691,39.89892010846043,101112800730
beijing,安华西里社区,朝阳,7300000.0,97308,Middle,75.02,1987,3,1,1,1,Plate,Steel/Concrete,Hardcover,Yes,Flat,116.40396406554547,39.97322077633398,101112801656
beijing,华昱家园,大兴,5500000.0,44979,Middle,122.28,2002,3,2,1,2,Plate,Steel/Concrete,Hardcover,Yes,Flat,116.3351889872266,39.73390409442645,101112794587
beijing,京贸国际城,通州,5350000.0,57863,Low,92.46,2015,2,1,1,1,Plate & Tower,Steel/Concrete,Hardcover,Yes,Flat,116.69099001327976,39.92485710792502,101112794866
beijing,荟康苑,朝阳,3450000.0,52552,First Floor ,65.65,1996,2,1,1,1,Plate,Mixed,Hardcover,No,Flat,116.59112044905523,39.924145386416775,101112811458
beijing,天通西苑二区,昌平,4100000.0,43378,Low,94.52,2003,2,2,1,1,Tower,Mixed,Simplicity,Yes,Flat,116.41863515520221,40.0772758428414,101112809116
beijing,马赛公馆,大兴,3850000.0,46369,Low,83.03,2012,2,1,1,1,Plate,Steel/Concrete,Simplicity,Yes,Flat,116.32091536182581,39.750960165225,101112808422
beijing,茂华景公阁,石景山,7800000.0,70826,Middle,110.13,2008,2,2,1,2,Plate,Steel/Concrete,Hardcover,Yes,Flat,116.20927440219849,39.92381186382019,101112795698
beijing,康盛园,大兴,4100000.0,43729,Middle,93.76,1998,3,1,1,1,Plate,Mixed,Hardcover,No,Flat,116.32151318414269,39.767571623762336,101112800911
beijing,龙华园,昌平,4690000.0,47721,Middle,98.28,2002,3,1,1,1,Plate,Mixed,Simplicity,No,Flat,116.33118101753273,40.0809530687648,101112862128
beijing,石佛营西里小区,朝阳,4490000.0,69993,Low,64.15,1994,2,1,1,1,Plate,Brick/Concrete,Hardcover,No,Flat,116.50515225242812,39.939379646824015,101112801529
beijing,南十里居10号院,朝阳,6360000.0,68676,Middle,92.61,1999,2,1,1,1,Plate,Mixed,Hardcover,No,Flat,116.50700698381458,39.96319382961531,101112811319
beijing,慧忠里,朝阳,7590000.0,98932,High,76.72,1993,3,1,1,1,Plate,Mixed,Simplicity,No,Flat,116.40793718098554,40.01368197927035,101112832064
beijing,龙泽苑东区,昌平,6800000.0,50263,Middle,135.29,2003,3,2,1,2,Plate,Steel/Concrete,Simplicity,No,Flat,116.33419402404375,40.07899504267787,101112794372
beijing,金丰园,丰台,5150000.0,54805,High,93.97,2001,2,2,1,1,Plate,Mixed,Hardcover,No,Flat,116.32240502185299,39.856384086606965,101112798093
beijing,北苑家园茉藜园,朝阳,5800000.0,56399,Middle,102.84,2005,2,1,1,2,Plate & Tower,Steel/Concrete,Simplicity,Yes,Flat,116.4305310018503,40.04557204907456,101112818285
beijing,运河园,通州,4760000.0,55614,Low,85.59,2001,2,1,1,1,Plate,Mixed,Hardcover,No,Flat,116.69297868201777,39.91774834224963,101112842885
beijing,公园1872,朝阳,12990000.0,103796,High,125.15,2010,2,1,1,2,Plate & Tower,Steel/Concrete,Hardcover,Yes,Flat,116.50400727222511,39.93189272044746,101112829558
beijing,三义庙北,海淀,7800000.0,111909,Low,69.7,1993,3,1,1,1,Plate,Mixed,Hardcover,No,Flat,116.32552375892254,39.97705595306707,101112807179
beijing,北重西厂,石景山,3600000.0,51488,Middle,69.92,2000,2,1,1,1,Plate,Mixed,Hardcover,No,Flat,116.23355326453887,39.89900687563688,101112817683
beijing,十里堡北里,朝阳,4980000.0,62824,High,79.27,1992,3,2,1,1,Tower,Steel/Concrete,Hardcover,Yes,Flat,116.51182001490648,39.92839810552587,101112793249
beijing,欧陆经典,朝阳,11800000.0,82432,Middle,143.15,2001,3,2,1,2,Tower,Steel/Concrete,Simplicity,Yes,Flat,116.42474591436604,40.00238112473568,101112804177
beijing,国兴家园,海淀,15000000.0,104844,High,143.07,2000,3,2,1,2,Tower,Steel/Concrete,Hardcover,Yes,Flat,116.33439659193624,39.93908831230159,101112806378
beijing,宣颐家园,大兴,6190000.0,48806,Middle,126.83,2001,3,2,1,2,Plate,Mixed,Simplicity,Yes,Flat,116.45906882044405,39.81721176110026,101112836575
beijing,金鱼池东区,东城,7000000.0,96194,Middle,72.77,2002,2,1,1,1,Plate,Steel/Concrete,Simplicity,No,Flat,116.41730300406313,39.8960114757828,101112841699
beijing,洋桥北里,丰台,4090000.0,61137,Low,66.9,1990,3,1,1,1,Plate,Mixed,Hardcover,No,Flat,116.38784999181583,39.86879005255794,101112852768
beijing,安慧里四区,朝阳,6900000.0,85630,High,80.58,1989,3,1,1,1,Tower,Steel/Concrete,Hardcover,Yes,Flat,116.41929418805655,39.99693547177334,101112791204
beijing,烟树园,海淀,7900000.0,105306,First Floor ,75.02,2003,2,1,1,1,Tower,Steel/Concrete,Hardcover,Yes,Flat,116.28605787413882,39.96883670112172,101112804176
beijing,荟康苑,朝阳,3430000.0,50117,First Floor ,68.44,1996,2,1,1,1,Plate,Brick/Concrete,Simplicity,No,Flat,116.59112044905523,39.924145386416775,101112797437
beijing,玉海园二里,海淀,5790000.0,71482,High,81,1997,2,1,1,1,Plate & Tower,Steel/Concrete,Simplicity,Yes,Flat,116.26066493330497,39.92606438911374,101112804197
beijing,观林园,海淀,12800000.0,91968,Low,139.18,2011,3,1,1,2,Plate,Steel/Concrete,Hardcover,Yes,Flat,116.37848749246864,40.04711803974313,101112791277
beijing,鹏润家园,丰台,7100000.0,69882,High,101.6,2001,2,1,1,2,Tower,Steel/Concrete,Hardcover,Yes,Flat,116.35350588572781,39.875702866576596,101112812705
beijing,水仙园,通州,5990000.0,45659,High,131.19,2000,3,2,1,2,Plate,Mixed,Hardcover,No,Flat,116.70042096350682,39.92028909567151,101112800518
beijing,海户西里,丰台,3660000.0,56877,First Floor ,64.35,1988,2,1,1,1,Plate,Mixed,Hardcover,No,Flat,116.39676520418857,39.85736004780381,101112813590
beijing,安慧里一区,朝阳,6080000.0,92938,Middle,65.42,1990,2,2,1,1,Tower,Steel/Concrete,Simplicity,Yes,Flat,116.42058011239409,39.99932920867382,101112827405
beijing,首座御园一期,大兴,3250000.0,42495,Middle,76.48,2013,2,2,1,1,Plate,Steel/Concrete,Simplicity,Yes,Flat,116.37346102398756,39.75042906719188,101112835179
beijing,南沙滩小区,朝阳,4060000.0,73886,Middle,54.95,1984,2,1,1,1,Plate,Mixed,Simplicity,No,Flat,116.3840439612006,40.00649505910196,101112828944
beijing,田村29号院,海淀,4680000.0,83468,Middle,56.07,1982,2,1,1,1,Plate,Mixed,Simplicity,No,Flat,116.38943666883812,39.975816265765076,101112822606
beijing,国美第一城3号院,朝阳,7100000.0,71914,Middle,98.73,2007,2,1,1,2,Plate & Tower,Steel/Concrete,Hardcover,Yes,Flat,116.52147051100017,39.93969283176998,101112837420
beijing,金地格林小镇,亦庄开发区,10800000.0,67307,First Floor ,160.46,2003,3,1,1,2,Plate,Mixed,Simplicity,No,Flat,116.50235196466186,39.79911606499281,101112816302
beijing,郁花园一里,大兴,4200000.0,46409,Middle,90.5,1996,3,2,1,1,Plate,Mixed,Other,No,Flat,116.34483400365667,39.78059608904561,101112829099
beijing,疃里庄园,通州,3580000.0,34154,First Floor ,104.82,1993,3,2,1,1,Plate,Mixed,Hardcover,No,Flat,116.70225701013867,39.9519830761006,101112801940
beijing,天通西苑三区,昌平,4560000.0,36930,Middle,123.48,2003,2,2,1,2,Plate,Mixed,Hardcover,Yes,Flat,116.41581621861357,40.08336605392773,101112832999
beijing,百万庄大街21号院,西城,14000000.0,148180,Middle,94.48,2012,3,1,1,1,Plate & Tower,Steel/Concrete,Hardcover,Yes,Flat,116.35314395843783,39.93437485357191,101112836835
beijing,海户西里,丰台,4500000.0,55419,Low,81.2,1993,3,1,1,1,Plate & Tower,Steel/Concrete,Simplicity,Yes,Flat,116.39676520418857,39.85736004780381,101112856720
beijing,王致和腐乳厂宿舍,海淀,4900000.0,82078,Middle,59.7,1994,2,1,1,1,Plate,Mixed,Simplicity,No,Flat,116.25327699929926,39.93435804859573,101112851323
beijing,玉海园一里,海淀,6580000.0,93083,High,70.69,1998,2,1,1,1,Tower,Steel/Concrete,Hardcover,Yes,Flat,116.2616410320721,39.92706789284842,101112799112
beijing,农光里,朝阳,5500000.0,65391,Middle,84.11,1996,2,1,1,1,Tower,Steel/Concrete,Hardcover,Yes,Flat,116.47097262607896,39.888028772341514,101112804148
beijing,梵谷水郡,朝阳,5690000.0,61801,Middle,92.07,2005,3,1,1,1,Tower,Steel/Concrete,Hardcover,Yes,Flat,116.51334839190116,39.96659409713264,101112856297
beijing,丽港美度,朝阳,8650000.0,85568,Low,101.09,2006,2,2,1,2,Plate,Steel/Concrete,Hardcover,No,Flat,116.46704721066148,39.99481436752819,101112817965
beijing,南海家园六里,大兴,4600000.0,46381,Middle,99.18,2013,3,2,1,1,Plate,Steel/Concrete,Simplicity,Yes,Flat,116.50126483533369,39.76620699966685,101112826972
beijing,重兴园,石景山,5750000.0,58614,Middle,98.1,2003,2,1,1,1,Plate,Mixed,Simplicity,No,Flat,116.23303063039317,39.89772950492702,101112814466
beijing,天天家园,东城,8500000.0,67941,Middle,125.11,2002,2,1,1,1,Tower,Steel/Concrete,Hardcover,Yes,Flat,116.42449537695933,40.09320679799463,101112840636
beijing,韩庄子四里,丰台,2680000.0,50282,High,53.3,1992,2,1,1,1,Plate,Mixed,Simplicity,No,Flat,116.29930177193353,39.8443417665784,101112802168
beijing,双兴北区,顺义,3700000.0,39581,High,93.48,2005,2,1,1,1,Plate & Tower,Steel/Concrete,Hardcover,Yes,Flat,116.66092121260537,40.14752761731012,101112850840
beijing,壹线国际,朝阳,4950000.0,60066,Low,82.41,2008,2,1,1,1,Plate,Steel/Concrete,Hardcover,Yes,Flat,116.51027708536255,39.9150162224772,101112808500
beijing,金宝城北区,顺义,3360000.0,35295,Low,95.2,2014,2,2,1,1,Plate,Steel/Concrete,Hardcover,Yes,Flat,116.67005365591146,40.183796360231625,101112812678
beijing,松榆西里,朝阳,3250000.0,58370,Top ,55.68,1992,2,1,1,1,Plate,Mixed,Simplicity,No,Flat,116.47203298590294,39.88113008384472,101112814640
beijing,建工家园,朝阳,7050000.0,60693,Low,116.16,2008,2,2,1,2,Plate,Steel/Concrete,Hardcover,Yes,Flat,116.48926679745078,39.87070508062296,101112806959
beijing,天通苑中苑,昌平,7480000.0,36754,Middle,203.52,2008,3,2,1,2,Plate,Steel/Concrete,Hardcover,Yes,Flat,116.43371495589989,40.07866407586977,101112852273
beijing,北苑家园茉藜园,朝阳,7650000.0,58707,High,130.31,2005,3,1,1,2,Plate & Tower,Steel/Concrete,Hardcover,Yes,Flat,116.4305310018503,40.04557204907456,101112807554
beijing,朝阳无限,朝阳,4600000.0,69560,High,66.13,2004,2,1,1,1,Plate & Tower,Steel/Concrete,Hardcover,Yes,Flat,116.51845103668948,39.924010096236984,101112817706
beijing,名都家苑,丰台,7300000.0,80977,Low,90.15,2005,2,2,1,1,Plate,Steel/Concrete,Hardcover,Yes,Flat,116.37898299778794,39.8450951101738,101112834313
beijing,马家堡33号院,丰台,3300000.0,52885,First Floor ,62.4,1980,2,1,1,1,Plate,Mixed,Simplicity,No,Flat,116.38960393332407,39.86743991327043,101112827688
beijing,紫南家园,朝阳,7500000.0,56184,High,133.49,2001,4,1,1,2,Plate,Mixed,Hardcover,Yes,Duplex,116.50451427585493,39.88080451700213,101112803237
beijing,诚苑南里,丰台,3680000.0,43727,High,84.16,2009,2,1,1,1,Plate & Tower,Steel/Concrete,Hardcover,Yes,Flat,116.37953482686271,39.80942316121676,101112806634
beijing,馨岛苑,朝阳,4300000.0,48364,High,88.91,2008,2,1,1,1,Plate & Tower,Steel/Concrete,Hardcover,Yes,Flat,116.60680935478699,39.92006048639967,101112813274
beijing,静源居,海淀,10600000.0,98936,Low,107.14,2002,2,1,1,1,Tower,Steel/Concrete,Hardcover,Yes,Flat,116.30602253443698,39.91735433054075,101112838854
beijing,苹果园小区四区,石景山,4690000.0,48702,High,96.3,2001,2,2,1,1,Tower,Steel/Concrete,Simplicity,Yes,Flat,116.18769800215433,39.93359504297107,101112853440
beijing,富力华庭苑西区,大兴,2680000.0,30150,Low,88.89,2013,2,1,1,1,Tower,Steel/Concrete,Hardcover,Yes,Flat,116.31762441958999,39.637347973393204,101112838705
beijing,富力尚悦居,通州,4160000.0,37064,Middle,112.24,2015,3,1,1,1,Plate,Steel/Concrete,Hardcover,Yes,Flat,116.5943912692476,39.77770478925122,101112808812
beijing,金宸国际公寓,西城,36500000.0,151478,High,240.96,2003,4,2,1,3,Plate,,Simplicity,Yes,Flat,116.36815006215146,39.918758540201026,101112799418
beijing,南厂东区,昌平,1790000.0,25071,High,71.4,1988,3,1,1,1,Plate,Mixed,Hardcover,No,Flat,116.13410078356262,40.251646306655864,101112832745
beijing,沿海赛洛城三期,朝阳,6750000.0,66359,High,101.72,2007,2,2,1,2,Plate,Steel/Concrete,Hardcover,Yes,Flat,116.51247802369254,39.90095737807237,101112810285
beijing,天通苑北三区,昌平,5580000.0,44730,Middle,124.75,2004,3,1,1,1,Plate,Mixed,Hardcover,No,Flat,116.44012625215514,40.08296368870586,101112838556
beijing,圆明园花园别墅,海淀,11980000.0,85762,Low,139.69,2000,4,2,1,2,Plate,Mixed,Hardcover,No,Flat,116.29706076917778,40.027168166471036,101112831115
beijing,新景家园西区,东城,12800000.0,109966,Middle,116.4,2001,3,1,1,2,Plate & Tower,Steel/Concrete,Hardcover,Yes,Flat,116.42866522130609,39.90240987444565,101112842800
beijing,金帝花园,朝阳,9700000.0,81329,Middle,119.27,1997,3,1,1,2,Plate & Tower,Steel/Concrete,Hardcover,Yes,Flat,116.33694607280411,39.75888460896606,101112842100
beijing,德茂佳苑,大兴,2700000.0,38771,Middle,69.64,2003,1,1,1,1,Plate,Mixed,Simplicity,No,Flat,116.44536714616144,39.783174124384516,101112730304
beijing,绿城百合公寓春晓苑,房山,3050000.0,17646,Top ,172.85,2006,4,2,1,2,Plate,Mixed,Hardcover,No,Duplex,116.08006698849303,39.71723207216384,101112595711
beijing,万科中粮假日风景,丰台,10000000.0,87936,First Floor ,113.72,2008,2,2,1,2,Plate,Steel/Concrete,Hardcover,Yes,Duplex,116.25641774485378,39.87280528493912,101112566418
beijing,中堂,丰台,15450000.0,78574,Middle,196.63,2011,4,2,1,3,Plate,Steel/Concrete,Hardcover,Yes,Flat,116.28494307700093,39.88899622974002,101112534608
beijing,时代庄园,朝阳,13800000.0,87781,First Floor ,157.21,2002,3,2,1,2,Plate,Mixed,Hardcover,No,Duplex,116.44087103725346,40.04650108378878,101112541355
beijing,远洋山水,石景山,8980000.0,65097,Middle,137.95,2005,3,1,1,2,Plate & Tower,Steel/Concrete,Simplicity,Yes,Flat,116.24659297749116,39.90677506436785,101103938469
beijing,美丽园,海淀,27000000.0,107245,Top ,251.76,2000,6,3,1,2,Plate,Steel/Concrete,Hardcover,Yes,Duplex,116.28585530624633,39.94262566364006,101112657681
beijing,龙潭北里,东城,16200000.0,97886,Middle,165.5,2000,4,1,1,2,Tower,Steel/Concrete,Hardcover,No,Flat,116.44652847552476,39.887913340883145,101112588799
beijing,映天朗,丰台,9850000.0,69523,Middle,141.68,2007,3,1,1,2,Plate,Steel/Concrete,Hardcover,Yes,Flat,116.43674997089589,39.85832805723297,101112600183
beijing,珠江帝景博悦,朝阳,17500000.0,108696,High,161,2008,3,2,1,3,Plate,Steel/Concrete,Hardcover,Yes,Flat,116.48976275192283,39.8935543052128,101112687078
beijing,宝星园一区,朝阳,13990000.0,63563,Low,220.1,2003,4,2,1,2,Plate & Tower,Steel/Concrete,Hardcover,Yes,Flat,116.4865092690268,40.00681670768078,101112680581
beijing,澳洲康都,朝阳,15200000.0,77702,Low,195.62,2006,4,2,1,2,Plate,Steel/Concrete,Hardcover,Yes,Flat,116.46524547930011,40.01863796007548,101112590912
beijing,臻园,朝阳,24500000.0,113843,Low,215.21,2016,4,2,1,3,Plate,Steel/Concrete,Hardcover,Yes,Flat,116.47107530239875,40.025176329500354,101112693277
beijing,融科橄榄城一期,朝阳,15980000.0,120969,Middle,132.1,2006,3,2,1,2,Plate & Tower,Steel/Concrete,Hardcover,Yes,Flat,116.49227055141503,40.0046643411514,101112534607
beijing,富贵园一区,东城,18800000.0,129388,Low,145.3,2004,3,2,1,2,Plate,Steel/Concrete,Hardcover,Yes,Flat,116.43982397235102,39.90249719067785,101112604208
beijing,首城国际C区,朝阳,14990000.0,103903,Low,144.27,2011,3,1,1,2,Plate,Steel/Concrete,Hardcover,Yes,Flat,116.47775168861001,39.89641550611473,101112623195
beijing,碧森里,海淀,11500000.0,73808,High,155.81,2004,4,2,1,2,Plate,Steel/Concrete,Simplicity,Yes,Duplex,116.25650622794653,39.93943012716249,101112559859
beijing,西绒线,西城,7500000.0,143816,Middle,52.15,2004,1,1,1,1,Plate,Steel/Concrete,Hardcover,No,Flat,116.38519776366203,39.91049111746923,101112791088
beijing,马家堡西里,丰台,4380000.0,56751,Low,77.18,1998,2,1,1,1,Plate & Tower,Steel/Concrete,Simplicity,Yes,Flat,116.38072103928864,39.85883761510765,101112800645
beijing,小康东里,大兴,3480000.0,45586,First Floor ,76.34,2003,2,1,1,1,Plate,Mixed,Simplicity,No,Flat,116.5280762005678,39.827278197019666,101112763746
beijing,定慧东里,海淀,6600000.0,102965,Low,64.1,1990,2,1,1,1,Plate,Mixed,Simplicity,No,Flat,116.29274396204958,39.9286480578313,101112835624
beijing,北苑家园望春园,朝阳,5560000.0,66627,Low,83.45,2007,2,1,1,1,Tower,Steel/Concrete,Hardcover,Yes,Flat,116.42541317569886,40.05288640224027,101112840406
beijing,广安﹒康馨家园,丰台,3800000.0,53155,Low,71.49,2015,2,1,1,1,Plate,Steel/Concrete,Hardcover,Yes,Flat,116.64119101004532,40.31949700439593,101112814431
beijing,三里河三区,西城,7500000.0,155602,Middle,48.2,1985,2,1,1,1,Plate,Mixed,Simplicity,No,Flat,116.34533301236748,39.91543404414209,101112820747
beijing,澳林春天四期,朝阳,26880000.0,95802,High,280.58,2004,5,4,1,4,Plate,Steel/Concrete,Hardcover,Yes,Duplex,116.38072696810501,40.0182600749986,101104510698
beijing,金融街融汇,大兴,3420000.0,41871,Low,81.68,2014,2,1,1,1,Plate & Tower,Steel/Concrete,Hardcover,Yes,Flat,116.64719528407402,39.922344884454276,101112591731
beijing,万方家园,通州,4900000.0,64070,High,76.48,2015,2,1,1,1,Plate,Steel/Concrete,Hardcover,Yes,Flat,116.58793892043053,39.92351845664808,101112599084
beijing,芳群园一区,丰台,6100000.0,80720,First Floor ,75.57,1992,3,1,1,1,Plate,Mixed,Simplicity,No,Flat,116.43032007971658,39.870013973871714,101112626360
beijing,华纺易城,朝阳,7950000.0,89760,Low,88.57,2005,2,1,1,1,Plate & Tower,Steel/Concrete,Simplicity,Yes,Flat,116.5225430877791,39.9373172508755,101112608068
beijing,首座御园一区二期,大兴,4090000.0,34877,Middle,117.27,2015,3,1,1,2,Plate & Tower,Steel/Concrete,Hardcover,Yes,Flat,116.37346102398756,39.75042906719188,101112610099
beijing,蓝堡国际公寓,朝阳,12600000.0,92839,Middle,135.72,2004,2,2,1,2,Plate & Tower,Steel/Concrete,Hardcover,Yes,Flat,116.48286628086161,39.916976779958205,101112505465
beijing,保利罗兰香谷,昌平,5150000.0,56426,Middle,91.27,2012,3,1,1,1,Plate,Steel/Concrete,Other,Yes,Flat,116.26993724277895,40.12615019762974,101112626565
beijing,华业东方玫瑰C区,通州,4890000.0,53725,Middle,91.02,2016,2,1,1,1,Plate & Tower,Steel/Concrete,Hardcover,Yes,Flat,116.69081726913019,39.88331938349712,101112576286
beijing,紫芳园一区,丰台,5390000.0,74448,Middle,72.4,2000,2,1,1,1,Tower,Steel/Concrete,Simplicity,Yes,Flat,116.45089046742011,39.8701405803912,101112613028
beijing,延静东里,朝阳,5490000.0,61534,Middle,89.22,1998,2,1,1,1,Tower,Steel/Concrete,Simplicity,Yes,Flat,116.49511144259034,39.92805194703695,101112517837
beijing,翠成馨园E区,朝阳,4300000.0,52065,Low,82.59,2009,2,1,1,1,Tower,Steel/Concrete,Simplicity,Yes,Flat,116.51155438596717,39.86258904832325,101112551518
beijing,时代龙和,大兴,6800000.0,41245,First Floor ,164.87,2007,3,2,1,2,Plate & Tower,Steel/Concrete,Rough,Yes,Duplex,116.34902370055522,39.74284034264927,101112562829
beijing,台湖银河湾,通州,5360000.0,66527,Middle,80.57,2016,3,2,1,1,Plate,Steel/Concrete,Hardcover,Yes,Flat,116.59467396599159,39.820298051551916,101112650463
beijing,天通苑本六区,昌平,4550000.0,39470,Middle,115.28,2001,2,1,1,1,Plate,Mixed,Hardcover,No,Flat,116.43166098035131,40.07223108683541,101112628336
beijing,芳群园一区,丰台,2580000.0,60864,Low,42.39,1990,1,1,1,1,Tower,Steel/Concrete,Simplicity,Yes,Flat,116.43032007971658,39.870013973871714,101112578269
beijing,保利春天里,大兴,3390000.0,40010,Low,84.73,2014,2,1,1,1,Plate,Steel/Concrete,Hardcover,Yes,Flat,116.32841199079822,39.678398555249,101112631600
beijing,马家堡西里,丰台,4800000.0,63092,High,76.08,1995,3,1,1,1,Tower,Steel/Concrete,Other,Yes,Flat,116.38072103928864,39.85883761510765,101112633847
beijing,国际港,朝阳,7600000.0,64407,High,118,2002,2,1,1,1,Plate & Tower,Steel/Concrete,Hardcover,Yes,Flat,116.46511495550949,39.96415510162696,101112549916
beijing,百合湾,通州,5980000.0,72600,Middle,82.37,2013,2,1,1,1,Plate & Tower,Steel/Concrete,Hardcover,Yes,Flat,116.69698997544201,39.91877223629026,101112641769
beijing,圣馨大地,朝阳,8660000.0,73967,High,117.08,2001,2,1,1,1,Tower,Steel/Concrete,Hardcover,Yes,Flat,116.46919002862496,40.00056342246478,101112520734
beijing,逸秀名园,通州,4250000.0,42243,Low,100.61,2004,2,1,1,1,Plate,Steel/Concrete,Simplicity,Yes,Flat,116.65114513340139,39.914514487205324,101112613679
beijing,彩虹城三区,丰台,8560000.0,59400,Low,144.11,2005,4,1,1,2,Plate,Steel/Concrete,Simplicity,Yes,Flat,116.42607971838727,39.84452880486406,101112570194
beijing,富强东里,大兴,1890000.0,35394,Top ,53.4,1990,2,1,1,1,Plate,Mixed,Simplicity,No,Flat,116.3471820844292,39.74678602146467,101112671512
beijing,金蝉南里,朝阳,3300000.0,59268,Middle,55.68,2007,1,1,1,1,Tower,Steel/Concrete,Hardcover,Yes,Flat,116.50904514918615,39.868721314058604,101112673362
beijing,农光里,朝阳,4200000.0,68617,Low,61.21,1999,2,1,1,1,Plate & Tower,Steel/Concrete,Simplicity,No,Flat,116.47097262607896,39.888028772341514,101112576050
beijing,恒盛小镇艺墅,大兴,2250000.0,25293,Middle,88.96,2004,2,1,1,1,Plate,Steel/Concrete,Hardcover,Yes,Flat,116.64605057336266,39.6571344319193,101112636490
beijing,恋日绿岛,朝阳,9000000.0,62371,First Floor ,144.3,2003,3,2,1,2,Plate,Mixed,Simplicity,No,Flat,116.48430437815254,39.832594096182845,101112617376
beijing,秀水园,朝阳,4150000.0,67557,Low,61.43,1994,2,1,1,1,Plate,Steel/Concrete,Hardcover,Yes,Flat,116.48227762126093,39.93471890515338,101112581709
beijing,大红门东门里,丰台,3250000.0,49558,Middle,65.58,1978,3,1,1,1,Plate,Mixed,Simplicity,No,Flat,116.40579175793607,39.84464694133224,101112591180
beijing,北京新天地三期,朝阳,3700000.0,59832,Middle,61.84,2009,1,1,1,1,Plate & Tower,Steel/Concrete,Hardcover,Yes,Flat,116.61284381188081,39.91996025776528,101112657230
beijing,北京新天地二期,朝阳,5800000.0,59100,Low,98.14,2008,2,1,1,1,Plate & Tower,Steel/Concrete,Hardcover,Yes,Flat,116.61142314171677,39.92093424694714,101112612244
beijing,样本,通州,6300000.0,44647,First Floor ,141.11,2006,3,2,1,2,Plate,Steel/Concrete,Hardcover,No,Flat,116.55042271792567,39.755848583499876,101112658166
beijing,小铁匠营,丰台,2700000.0,53925,Middle,50.07,1975,2,1,1,1,Plate,Mixed,Simplicity,No,Flat,116.42758824283017,39.86235020670643,101112654455
beijing,劲松二区,朝阳,3690000.0,62490,Low,59.05,1977,2,1,1,1,Plate,Mixed,Simplicity,No,Flat,116.46084297382626,39.89153909612594,101112578524
beijing,万方家园,通州,5990000.0,65522,High,91.42,2015,2,1,1,1,Plate,Steel/Concrete,Hardcover,Yes,Flat,116.58793892043053,39.92351845664808,101112530368
beijing,六合园,石景山,3350000.0,53755,Middle,62.32,1995,2,1,1,1,Plate,Mixed,Simplicity,No,Flat,116.22589044545389,39.90440209955599,101112657171
beijing,首座御园一区二期,大兴,3060000.0,32276,First Floor ,94.81,2015,2,1,1,1,Plate & Tower,Steel/Concrete,Hardcover,Yes,Flat,116.37346102398756,39.75042906719188,101112675167
beijing,酷特区,朝阳,4450000.0,72559,Low,61.33,2006,1,1,1,1,Plate & Tower,Steel/Concrete,Hardcover,Yes,Flat,116.51484047735323,39.93583922184007,101112625195
beijing,华威西里,朝阳,3480000.0,58049,First Floor ,59.95,1990,2,1,1,1,Tower,Steel/Concrete,Simplicity,Yes,Flat,116.46183847599241,39.878998021823776,101112612292
beijing,金地名京,朝阳,8300000.0,92521,Low,89.71,2010,2,1,1,1,Tower,Steel/Concrete,Hardcover,Yes,Flat,116.50366528731746,39.91619877565023,101112601245
beijing,美景东方,朝阳,7100000.0,81218,Low,87.42,2012,2,1,1,1,Plate & Tower,Steel/Concrete,Hardcover,Yes,Flat,116.47709664423213,39.87562963601552,101112599956
beijing,西坝河东里,朝阳,4460000.0,76871,Top ,58.02,1985,2,1,1,1,Plate,Mixed,Simplicity,No,Flat,116.45379172472568,39.97338306213093,101112639850
beijing,酒仙桥三街坊,朝阳,3250000.0,59481,Low,54.64,1992,2,1,1,1,Plate,Mixed,Simplicity,No,Flat,116.50678348540369,39.9694833264895,101112662726
beijing,首开熙悦山熹园3号院,房山,4470000.0,44634,Top ,100.15,2013,3,1,1,2,Plate,Steel/Concrete,Hardcover,Yes,Flat,116.22141419269089,39.774637852291754,101112618758
beijing,天通西苑三区,昌平,5650000.0,34212,Middle,165.15,2003,3,2,1,2,Tower,Mixed,Hardcover,Yes,Flat,116.41581621861357,40.08336605392773,101112518261
beijing,久筑物业,石景山,3690000.0,50191,High,73.52,1996,2,1,1,1,Plate & Tower,Steel/Concrete,Hardcover,Yes,Flat,116.48256885190727,39.87428863068945,101112546236
beijing,蓝桥驿苑,大兴,2350000.0,29197,High,80.49,2014,2,1,1,1,Plate,Steel/Concrete,Simplicity,Yes,Flat,117.28016433314419,40.65559643990614,101112533391
beijing,恩济庄96号院,海淀,6980000.0,87382,Middle,79.88,1998,2,2,1,1,Plate,Mixed,Hardcover,No,Flat,116.29153196825553,39.93312083131205,101112627933
beijing,东大街,丰台,6500000.0,72247,High,89.97,2001,3,1,1,1,Plate,Steel/Concrete,Hardcover,Unknown,Flat,116.64331397545705,40.32236234424842,101112536201
beijing,静安里,朝阳,3600000.0,69178,Low,52.04,1981,2,1,1,1,Plate,Mixed,Simplicity,No,Flat,116.45124251334947,39.96498723448301,101112578542
beijing,建兴家园,大兴,4180000.0,46419,Middle,90.05,2002,2,1,1,1,Plate,Mixed,Simplicity,No,Flat,116.3424770296596,39.73019905851717,101112564286
beijing,富力又一城A区,朝阳,7500000.0,53895,Middle,139.16,2007,3,2,1,2,Plate,Steel/Concrete,Hardcover,Yes,Flat,116.57255364196112,39.85307052658762,101112528343
beijing,京宝花园,东城,10500000.0,71342,Low,147.18,1994,3,1,1,2,Plate,Steel/Concrete,Simplicity,Yes,Flat,116.41341055645785,39.95960445805671,101112662911
beijing,富卓苑,丰台,4600000.0,62121,First Floor ,74.05,2001,2,1,1,1,Plate,Mixed,Simplicity,No,Flat,116.3823957502509,39.84415618198873,101112533010
beijing,东安街头条1号院,丰台,4790000.0,81881,Middle,58.5,1981,2,1,1,1,Plate,Mixed,Simplicity,No,Flat,116.28778540546506,39.8565463055248,101112649400
beijing,和平街十五区2号院,朝阳,6680000.0,71444,Low,93.5,1997,3,1,1,1,Tower,Steel/Concrete,Simplicity,Yes,Flat,116.43733512710509,39.971044671507975,101112527088
beijing,香悦四季,顺义,5590000.0,40786,Top ,137.06,2011,4,2,1,2,Plate,Steel/Concrete,Hardcover,Yes,Flat,116.66267012360275,40.186692162655376,101112566056
beijing,京贸国际城,通州,5300000.0,57848,High,91.62,2011,2,1,1,1,Plate & Tower,Steel/Concrete,Simplicity,Yes,Flat,116.69099001327976,39.92485710792502,101112559318
beijing,双合家园,朝阳,4290000.0,47752,Middle,89.84,2013,3,1,1,1,Plate,Steel/Concrete,Hardcover,Yes,Flat,116.40870604067155,40.0897760414017,101112535811
beijing,益城园,丰台,7680000.0,73444,High,104.57,2003,2,2,1,1,Plate,Steel/Concrete,Hardcover,Yes,Flat,116.37310188144467,39.83939687249272,101112657363
beijing,燕化星城建德一里,房山,1790000.0,26340,Middle,67.96,1995,2,1,1,1,Plate,Mixed,Hardcover,No,Flat,116.07309299366631,39.718929704853146,101112567847
beijing,金地格林格林,通州,3550000.0,39839,Low,89.11,2013,3,1,1,1,Plate,Steel/Concrete,Simplicity,Yes,Flat,116.66107850590018,39.95716590254813,101112540737
beijing,国瑞城中区,东城,7490000.0,102645,Middle,72.97,2006,2,1,1,1,Tower,Steel/Concrete,Hardcover,Yes,Flat,116.43058445102815,39.905126242351,101112588029
beijing,京汉旭城,石景山,5990000.0,66298,Low,90.35,2004,2,2,1,1,Plate,Steel/Concrete,Simplicity,Yes,Flat,116.23488482279632,39.89715637207486,101112530998
beijing,北街家园二区,昌平,6100000.0,41673,High,146.38,2008,3,2,1,2,Plate,Steel/Concrete,Hardcover,Yes,Flat,116.28357280177603,39.638007264367545,101112578995
beijing,农光里,朝阳,4000000.0,62016,Low,64.5,1991,2,1,1,1,Plate,Steel/Concrete,Hardcover,Yes,Flat,116.47097262607896,39.888028772341514,101112646844
beijing,武圣西里,朝阳,3060000.0,56096,Top ,54.55,1997,2,1,1,1,Plate,Mixed,Simplicity,No,Flat,116.47237146741911,39.884051671998336,101112528328
beijing,拂林园,朝阳,8950000.0,64607,Low,138.53,2002,2,2,1,2,Plate & Tower,Steel/Concrete,Hardcover,Yes,Flat,116.42285255584267,40.0347209509003,101112691623
beijing,百旺家苑,海淀,12800000.0,97014,Middle,131.94,2003,3,2,1,2,Plate,Mixed,Hardcover,No,Flat,116.27535779788728,40.035286293337194,101112528226
beijing,柳芳北里,朝阳,4300000.0,75320,Middle,57.09,1984,2,1,1,1,Plate,Mixed,Simplicity,No,Flat,116.44263198554466,39.961465012669464,101112652208
beijing,DBC加州小镇C区,通州,4360000.0,43561,Middle,100.09,2010,2,1,1,1,Plate,Steel/Concrete,Hardcover,Yes,Flat,116.68976634151409,39.87055701657621,101112603143
beijing,海特花园小区,石景山,5450000.0,51030,Low,106.8,1995,3,1,1,2,Tower,Steel/Concrete,Hardcover,Yes,Flat,116.19527224472282,39.93902413970611,101112548236
beijing,鑫苑鑫都汇,大兴,3350000.0,42203,Low,79.38,2015,2,1,1,1,Plate,Steel/Concrete,Hardcover,Yes,Flat,116.3271399901961,39.69510307840096,101112629947
beijing,柳芳北街9号院,朝阳,5190000.0,81939,High,63.34,1997,2,1,1,1,Tower,Steel/Concrete,Simplicity,Yes,Flat,116.43927097547909,39.96632831696377,101112579523
beijing,月季园,通州,4080000.0,47327,First Floor ,86.21,2009,2,1,1,1,Tower,Steel/Concrete,Simplicity,Yes,Flat,116.11714203316193,39.93340306268382,101112586470
beijing,金色漫香林二期,大兴,4630000.0,51703,High,89.55,2010,2,1,1,1,Plate,Steel/Concrete,Hardcover,Yes,Flat,116.52729602223238,39.82953405899873,101112605991
beijing,加州水郡四期,房山,3020000.0,33165,High,91.06,2011,3,1,1,1,Plate & Tower,Steel/Concrete,Simplicity,Yes,Flat,116.17806421454313,39.77319982073812,101112640318
beijing,海户西里,丰台,3490000.0,57120,Middle,61.1,1993,2,1,1,1,Plate & Tower,Steel/Concrete,Simplicity,Yes,Flat,116.39676520418857,39.85736004780381,101112599816
beijing,汤泉墅,丰台,4620000.0,34363,Low,134.45,2013,3,2,1,2,Plate,Mixed,Hardcover,Yes,Flat,116.16062424188077,39.79773363881476,101112655984
beijing,彩虹新城,大兴,3810000.0,47294,Low,80.56,2009,2,1,1,1,Plate & Tower,Steel/Concrete,Hardcover,Yes,Flat,116.34198098535698,39.754378121596766,101112542420
beijing,广安﹒康馨家园,丰台,3700000.0,49288,Low,75.07,2015,2,1,1,1,Plate & Tower,Steel/Concrete,Simplicity,Yes,Flat,116.64119101004532,40.31949700439593,101112566203
beijing,首开国风美唐二期,昌平,9960000.0,70166,Middle,141.95,2014,4,2,2,1,Plate,Steel/Concrete,Rough,Yes,Flat,116.36684096153176,40.08549404374912,101112648920
beijing,六场宿舍,石景山,2880000.0,51392,High,56.04,1988,2,1,1,1,Plate,Mixed,Simplicity,No,Flat,116.22444920768689,39.908861633077954,101112557811
beijing,BOBO自由城,通州,8310000.0,68043,First Floor ,122.13,2005,3,2,1,2,Plate,Mixed,Hardcover,No,Split-Level,116.70044764318047,39.91463568431796,101112629732
beijing,蒲黄榆二里,丰台,3250000.0,59405,Middle,54.71,1985,2,1,1,1,Tower,Steel/Concrete,Other,Yes,Flat,116.42551405540765,39.87645787045035,101112542091
beijing,曙光里,朝阳,4500000.0,75453,First Floor ,59.64,1999,2,1,1,1,Plate,Mixed,Simplicity,No,Flat,116.45855301342023,39.97149705326099,101112560133
beijing,格林云墅,大兴,4380000.0,31473,Top ,139.17,2015,4,1,1,2,Plate,Steel/Concrete,Rough,Yes,Duplex,116.40767101306294,39.71436507938352,101112557578
beijing,新华联家园南区,通州,3990000.0,42407,First Floor ,94.09,2002,2,1,1,1,Plate,Mixed,Hardcover,No,Flat,116.64643594642644,39.896291647097065,101112567706
beijing,首开康乃馨城,大兴,3390000.0,38159,High,88.84,2012,2,1,1,1,Plate,Steel/Concrete,Simplicity,Yes,Flat,116.31834656738947,39.75430337383165,101112543681
beijing,国美第一城2号院,朝阳,5300000.0,68335,Low,77.56,2006,2,1,1,1,Tower,Steel/Concrete,Hardcover,Yes,Flat,116.51820939250729,39.94012184232057,101112581743
beijing,长滩壹号,昌平,5190000.0,48811,Middle,106.33,2013,3,1,1,1,Plate,Steel/Concrete,Hardcover,Yes,Flat,116.28051703592271,40.203228073192406,101112688031
beijing,天通苑东二区,昌平,5250000.0,39722,Middle,132.17,2001,3,1,1,2,Plate,Mixed,Hardcover,No,Flat,116.44587639555506,40.074105043223284,101112579459
beijing,东亚朗悦居,房山,1880000.0,24760,First Floor ,75.93,2016,2,2,1,1,Plate,Steel/Concrete,Hardcover,Yes,Flat,116.0661517869907,39.7216818338417,101112625768
beijing,光熙门北里,朝阳,4350000.0,73754,High,58.98,1992,2,1,1,1,Tower,Steel/Concrete,Hardcover,Yes,Flat,116.44125407472292,39.97287933901937,101112581420
beijing,金隅泰和园,朝阳,4800000.0,64223,Low,74.74,2013,2,1,1,1,Plate,Steel/Concrete,Hardcover,Yes,Flat,116.53798208491799,39.92659951456461,101112526583
beijing,罗庄南里,海淀,8370000.0,113415,Middle,73.8,1987,3,1,1,1,Plate,Mixed,Hardcover,No,Flat,116.35214073084428,39.97813977104909,101112623265
beijing,万泉河62号院,海淀,12600000.0,143705,Middle,87.68,2000,3,1,1,1,Plate & Tower,Steel/Concrete,Simplicity,Yes,Flat,116.30999232614667,39.979591377171865,101112621270
beijing,丰益花园西区,丰台,5180000.0,67882,High,76.31,2001,2,1,1,1,Tower,Steel/Concrete,Simplicity,Yes,Flat,116.3146625266625,39.865452174849665,101112685701
beijing,溪城家园,昌平,4870000.0,57147,Middle,85.22,2010,3,1,1,1,Plate,Steel/Concrete,Hardcover,Yes,Flat,116.4069695262902,40.04922059109379,101112583990
beijing,门头沟月季园,门头沟,2980000.0,34648,Low,86.01,1991,3,1,1,1,Plate,Mixed,Hardcover,No,Flat,116.11714203316193,39.93340306268382,101112539723
beijing,八里庄南里,朝阳,3750000.0,61617,Low,60.86,1988,2,1,1,1,Tower,Steel/Concrete,Hardcover,Yes,Flat,116.50522959653252,39.927908572584656,101112580244
beijing,金科天玺,昌平,4550000.0,35898,High,126.75,2013,3,1,1,2,Plate,Steel/Concrete,Hardcover,Yes,Flat,116.43089795965115,40.18100006911717,101112650716
beijing,首开香溪郡,通州,3720000.0,35325,Middle,105.31,2015,3,1,1,1,Plate,Steel/Concrete,Rough,Yes,Flat,116.67624899952213,40.01453008210408,101112664503
beijing,南湖渠三巷6号院,朝阳,6300000.0,67015,High,94.01,2000,3,1,1,1,Plate,Mixed,Simplicity,No,Flat,116.46250807291955,39.99636794349824,101112662477
beijing,季景沁园,朝阳,9950000.0,84790,High,117.35,2007,2,1,1,2,Plate & Tower,Steel/Concrete,Hardcover,Yes,Flat,116.4619274082379,40.00144347004279,101112555975
beijing,芳星园三区,丰台,6350000.0,66064,Low,96.12,1997,3,1,1,1,Plate & Tower,Steel/Concrete,Simplicity,Yes,Flat,116.44201008864012,39.86650011634015,101112547244
beijing,塔院小区,海淀,8250000.0,103125,Low,80,1991,3,1,1,1,Plate,Steel/Concrete,Simplicity,Yes,Flat,116.17347665813422,39.82200753253867,101112594031
beijing,国际花园4号院,房山,3290000.0,36682,Low,89.69,2014,3,1,1,1,Plate,Steel/Concrete,Rough,Yes,Flat,116.1935509117046,39.77739952273035,101112633436
beijing,东王庄,海淀,9800000.0,106987,First Floor ,91.6,1997,3,1,1,1,Plate,Mixed,Simplicity,No,Flat,116.28139521938928,40.39781033960344,101112683841
beijing,柳林馆,海淀,5820000.0,122013,Middle,47.7,1976,2,1,1,1,Plate,Mixed,Simplicity,No,Flat,116.32352098678804,39.91637807644611,101112521897
beijing,蒲安里,丰台,3330000.0,57763,High,57.65,1990,2,1,1,1,Plate,Mixed,Simplicity,No,Flat,116.42558359413546,39.8697137080213,101112571598
beijing,亦庄北岸,大兴,5540000.0,50701,High,109.27,2008,3,2,1,2,Plate & Tower,Steel/Concrete,Hardcover,Yes,Flat,116.46994954593366,39.80312355670713,101112597240
beijing,永乐东区,石景山,3300000.0,49439,Low,66.75,1981,3,1,1,1,Plate,Mixed,Simplicity,No,Flat,116.23924295197799,39.90624427977269,101112538106
beijing,北京新天地三期,朝阳,5750000.0,64067,Middle,89.75,2009,2,2,1,1,Plate & Tower,Steel/Concrete,Hardcover,Yes,Flat,116.61284381188081,39.91996025776528,101112576878
beijing,北三环中路34号院,海淀,7600000.0,91347,First Floor ,83.2,1956,4,1,1,1,Plate,Mixed,Hardcover,No,Flat,116.37291296779591,39.972223069555184,101112693786
beijing,山水汇豪苑B区,房山,1900000.0,21870,High,86.88,2011,2,1,1,1,Plate,Steel/Concrete,Other,Yes,Flat,116.08040861407846,39.65554039832675,101112639091
beijing,中海城香克林,朝阳,4670000.0,70662,Middle,66.09,2012,1,1,1,1,Plate,Steel/Concrete,Hardcover,Yes,Flat,116.4553104898514,39.84494574397001,101112564243
beijing,远洋万和城B区,朝阳,19500000.0,111213,High,175.34,2009,4,2,2,3,Plate,Steel/Concrete,Hardcover,Yes,Flat,116.4388993464896,39.99842992633678,101112692122
beijing,远洋德邑,东城,6150000.0,94181,Top ,65.3,2003,1,1,1,1,Plate & Tower,Steel/Concrete,Hardcover,Yes,Flat,116.45306364810985,39.90084646593686,101112690176
beijing,珠光逸景二期,丰台,3000000.0,38305,High,78.32,2014,2,2,1,1,Plate,Steel/Concrete,Hardcover,Yes,Flat,116.18453102607891,39.84182206636424,101112534024
beijing,天坛西里东区,东城,4850000.0,97020,First Floor ,49.99,1979,2,1,1,1,Plate,Mixed,Simplicity,No,Flat,116.40896439333622,39.88192807591433,101112633934
beijing,首开常青藤二期,朝阳,7160000.0,77423,Middle,92.48,2011,3,1,1,1,Plate,Steel/Concrete,Hardcover,Yes,Flat,116.54374597239219,39.96830405137201,101112617578
beijing,珠江国际城八区,通州,6490000.0,43412,High,149.5,2004,3,2,1,2,Plate,Steel/Concrete,Hardcover,Yes,Split-Level,116.68621156694999,39.937319048860616,101112530357
beijing,国美第一城2号院,朝阳,8550000.0,60626,Middle,141.03,2006,3,2,1,2,Plate & Tower,Steel/Concrete,Hardcover,Yes,Flat,116.51820939250729,39.94012184232057,101112699741
beijing,京投银泰万科西华府,丰台,3350000.0,70453,Low,47.55,2014,1,1,1,1,Plate,Steel/Concrete,Hardcover,Yes,Flat,116.31094237405402,39.818957895992675,101112691871
beijing,松榆里,朝阳,3580000.0,65460,Middle,54.69,1992,2,1,1,1,Plate,Mixed,Hardcover,No,Flat,116.47203298590294,39.88113008384472,101112527288
beijing,帅府园二期,通州,5450000.0,63189,Middle,86.25,2015,2,2,1,1,Plate,Steel/Concrete,Hardcover,Yes,Flat,116.6542197636704,39.912011358774784,101112619487
beijing,韩庄子四里,丰台,2800000.0,50910,High,55,1992,2,1,1,1,Plate,Mixed,Hardcover,No,Flat,116.29930177193353,39.8443417665784,101112540752
beijing,西马庄园,通州,3150000.0,36981,Middle,85.18,2001,2,1,2,1,Plate,Mixed,Hardcover,No,Flat,116.63650302308041,39.918474103622785,101112692061
beijing,益辰欣园,丰台,7380000.0,52233,Low,141.29,2002,3,2,1,2,Plate,Steel/Concrete,Hardcover,Yes,Flat,116.32139793154576,39.82963400534573,101112657467
beijing,加州水郡三期,房山,2800000.0,30749,Middle,91.06,2010,2,1,1,1,Tower,Steel/Concrete,Hardcover,Yes,Flat,116.17192699129896,39.77437208388243,101112618215
beijing,天通苑北一区,昌平,5650000.0,41247,High,136.98,2004,3,1,1,2,Plate,Steel/Concrete,Hardcover,Yes,Flat,116.42363345282249,40.08074377094799,101112627626
beijing,书香亭,朝阳,5160000.0,60921,Low,84.7,2002,2,1,1,1,Tower,Steel/Concrete,Hardcover,Yes,Flat,116.4733711017906,39.87662066446705,101112591695
beijing,富力阳光美园,朝阳,4290000.0,56057,Middle,76.53,2010,2,1,1,1,Tower,Steel/Concrete,Hardcover,Yes,Flat,116.61305697977832,39.933898088559005,101112619655
beijing,保利罗兰香谷,昌平,4900000.0,53864,High,90.97,2014,3,1,1,1,Plate,Steel/Concrete,Simplicity,Yes,Flat,116.26993724277895,40.12615019762974,101112604365
beijing,南开西里,丰台,3600000.0,52137,Middle,69.05,1992,3,1,1,1,Plate,Mixed,Hardcover,No,Flat,116.2867539710785,39.84735509096793,101112578837
beijing,万象新天四区,朝阳,4560000.0,56158,Middle,81.2,2005,2,1,1,1,Plate & Tower,Steel/Concrete,Hardcover,Yes,Flat,116.5979529607641,39.93239709370271,101112601506
beijing,华润八号院,顺义,18500000.0,26047,Top ,710.26,2016,7,5,1,9,Other,Steel/Concrete,Hardcover,Unknown,Duplex,116.6785059022854,40.158722332225196,101109711880
beijing,北辰香麓,海淀,13800000.0,45598,Low,302.65,2010,5,2,1,3,Plate,Steel/Concrete,Rough,Yes,Duplex,116.18516756536327,40.05394684701574,101109799914
beijing,月亮湾,顺义,7500000.0,31483,First Floor ,238.23,2001,5,2,1,4,Plate,Mixed,Hardcover,No,Duplex,116.00273968239695,40.55860702084673,101112169392
beijing,北京新天地五期,朝阳,8990000.0,51783,Low,173.61,2010,4,2,1,2,Plate & Tower,Steel/Concrete,Hardcover,Yes,Flat,116.61232602858486,39.92220205130386,101111010102
beijing,天通苑中苑,昌平,6900000.0,33904,Low,203.52,2008,4,1,1,2,Plate,Steel/Concrete,Hardcover,Yes,Flat,116.43371495589989,40.07866407586977,101109358884
beijing,紫禁壹号院南院,亦庄开发区,12700000.0,69873,Middle,181.76,2015,4,2,1,3,Plate,Steel/Concrete,Hardcover,Yes,Flat,116.48330698954481,39.791523116117666,101109929529
beijing,倚林佳园,朝阳,18000000.0,88588,Middle,203.19,2004,4,3,1,2,Plate,Steel/Concrete,Hardcover,Yes,Flat,116.3790153367863,40.02077689766063,101108369698
beijing,月亮湾,顺义,7850000.0,24424,First Floor ,321.41,2001,5,2,1,3,Plate,Mixed,Simplicity,No,Duplex,116.00273968239695,40.55860702084673,101112027910
beijing,丽水嘉园,朝阳,7760000.0,88052,Middle,88.13,2009,2,2,1,1,Tower,Steel/Concrete,Hardcover,Yes,Flat,116.49028170301594,39.938412560763325,101111157481
beijing,远大园五区,海淀,15650000.0,112372,High,139.27,2001,2,2,1,2,Plate,Steel/Concrete,Simplicity,Yes,Flat,116.28940945199655,39.958905060487446,101112043148
beijing,夏都盈座,朝阳,14800000.0,61871,High,239.21,2003,4,2,1,3,Plate,Steel/Concrete,Rough,Yes,,116.47375602570162,40.00238105564871,101110504343
beijing,星河湾朗园,朝阳,23500000.0,95050,Low,247.24,2006,4,2,1,2,Plate & Tower,Steel/Concrete,Hardcover,Yes,Split-Level,116.52969818099662,39.93477485227087,101111670564
beijing,蓝岸丽舍二期,顺义,10800000.0,27731,First Floor ,389.46,2012,5,3,1,3,Plate,Steel/Concrete,Rough,No,Duplex,116.7459016324937,40.1211069920465,101109800734
beijing,天鹅湾南区,朝阳,15600000.0,112946,Middle,138.12,2008,3,2,1,3,Tower,Steel/Concrete,Hardcover,Yes,Duplex,116.52936643677178,39.92612974975738,101111092546
beijing,远大美域,密云,4270000.0,17445,First Floor ,244.77,NaN,3,1,1,2,Other,Steel/Concrete,Rough,Unknown,Duplex,116.8404779315007,40.452551980353306,101110439772
beijing,阳光邑上别墅区,房山,7360000.0,30868,First Floor ,238.44,2013,4,4,1,4,Plate,Steel/Concrete,Simplicity,No,Duplex,116.16677008885783,39.73613169433303,101108978887
beijing,北京洋房,昌平,6600000.0,40593,Middle,162.59,2007,4,2,1,3,Plate,Steel/Concrete,Hardcover,Yes,Duplex,116.43763417300936,40.1203813998057,101112229872
beijing,风格雅园,朝阳,11980000.0,82117,Middle,145.89,2001,3,1,1,2,Plate,Steel/Concrete,Hardcover,Yes,Flat,116.47044981227216,40.00071686854372,101112330792
beijing,华远九都汇,朝阳,19500000.0,74857,Low,260.5,2011,4,2,1,4,Plate,Steel/Concrete,Hardcover,Yes,Flat,116.47247710814707,39.962513963039335,101112303176
beijing,华辉苑,朝阳,6490000.0,43055,Middle,150.74,2000,3,2,1,2,Tower,Steel/Concrete,Simplicity,Yes,Flat,116.46580242871629,39.87587050750758,101111918007
beijing,纳帕尔湾,顺义,11500000.0,30513,First Floor ,376.9,2008,5,2,1,5,Plate,Steel/Concrete,Hardcover,Unknown,Duplex,116.67182367708833,40.20596764880657,101111800367
beijing,泛海国际澜海园,朝阳,35500000.0,119666,Middle,296.66,2009,4,2,2,3,Plate,Steel/Concrete,Hardcover,Yes,Flat,116.50610930711845,39.94588210435569,101111099978
beijing,泛海国际樱海园,朝阳,28800000.0,108385,Middle,265.72,2009,4,2,1,3,Plate,Steel/Concrete,Hardcover,Yes,Flat,116.50305470906231,39.945591973202276,101111496699
beijing,左家庄东里,朝阳,8000000.0,54694,Top ,146.27,1995,3,2,1,2,Plate,Mixed,Hardcover,No,Duplex,116.45225580196471,39.96077482848973,101111469929
beijing,复地西绒线26号,西城,48900000.0,130237,High,375.47,2010,5,2,2,4,Tower,Steel/Concrete,Hardcover,Yes,Flat,116.38445107325774,39.90937005153619,101111388507
beijing,梨花园,通州,3990000.0,38344,Middle,104.06,1999,2,2,1,1,Plate,Mixed,Simplicity,No,Flat,116.6776767662997,39.89085553626136,101112161013
beijing,依翠园,石景山,7690000.0,53160,Middle,144.66,2002,3,1,1,2,Plate & Tower,Steel/Concrete,Hardcover,Yes,Flat,116.22276299841413,39.90594041894685,101112222079
beijing,华腾园,朝阳,9250000.0,75240,Top ,122.94,2004,3,2,1,2,Tower,Steel/Concrete,Hardcover,Yes,Flat,116.47187470447209,39.893108738921065,101112082258
beijing,映天朗,丰台,10880000.0,67415,High,161.39,2007,4,2,1,2,Plate,Steel/Concrete,Hardcover,Yes,Flat,116.43674997089589,39.85832805723297,101106235776
beijing,苹果派,朝阳,7300000.0,58682,High,124.4,2007,3,2,1,2,Plate,Steel/Concrete,Hardcover,Yes,Duplex,116.58476897994692,39.93558507754611,101110510652
beijing,益明园,丰台,9450000.0,79526,First Floor ,118.83,2004,3,2,1,3,Plate,Steel/Concrete,Hardcover,Yes,Duplex,116.373537559617,39.8418905550233,101111581128
beijing,富力丹麦小镇C区,大兴,9580000.0,38327,First Floor ,249.96,2012,6,2,1,4,Plate,Steel/Concrete,Hardcover,No,,116.32177791477649,39.634017456957146,101111898760
beijing,九台2000家园,朝阳,9450000.0,63960,First Floor ,147.75,2003,4,2,1,3,Tower,Steel/Concrete,Hardcover,Yes,Duplex,116.41504035214459,40.01408510228726,101111794378
beijing,香溪度,海淀,13300000.0,81882,High,162.43,2009,4,2,1,2,Plate,Steel/Concrete,Simplicity,Yes,Flat,116.24666852498456,39.93893631719807,101106641516
beijing,望京金茂府,朝阳,33500000.0,120513,Middle,277.98,2016,4,2,2,3,Plate,Steel/Concrete,Hardcover,Yes,Flat,116.43608657227678,39.847576535553024,101111269615
beijing,王府花园,昌平,5400000.0,33767,First Floor ,159.92,1995,3,1,1,3,Plate,Mixed,Simplicity,Yes,Duplex,116.40877700680682,40.11341204783705,101110862166
beijing,保利东郡,朝阳,19800000.0,118351,High,167.3,2012,3,2,1,3,Plate,Steel/Concrete,Hardcover,Yes,Flat,116.50669266671663,39.936083683549,101111141241
beijing,首开住总熙悦安郡,朝阳,9750000.0,89639,Middle,108.77,NaN,3,2,1,2,Plate,Steel/Concrete,Hardcover,Yes,Flat,116.44751903701061,39.84290305728692,101112727639
beijing,天鹅堡,通州,9500000.0,39875,First Floor ,238.25,2007,5,2,1,4,Plate,Steel/Concrete,Hardcover,No,Duplex,116.5432640314861,39.75609812967715,101112453553
beijing,望京金茂府,朝阳,33500000.0,120327,Middle,278.41,2016,4,2,2,3,Plate,Steel/Concrete,Hardcover,Yes,Flat,116.43608657227678,39.847576535553024,101111855249
beijing,望京新城,朝阳,7990000.0,47360,Top ,168.71,1999,4,1,1,2,Tower,Steel/Concrete,Hardcover,Yes,Flat,116.4791990384477,40.00422710311743,101109989876
beijing,北辰香麓,海淀,18980000.0,58261,First Floor ,325.78,2010,5,2,1,2,Plate,Steel/Concrete,Hardcover,Yes,Duplex,116.18516756536327,40.05394684701574,101110414041
beijing,华腾园,朝阳,7120000.0,72138,Middle,98.7,2000,2,2,1,1,Tower,Steel/Concrete,Simplicity,Yes,Flat,116.47187470447209,39.893108738921065,101112227497
beijing,万科青青家园,朝阳,8850000.0,40281,Middle,219.71,2003,5,2,1,3,Plate,Mixed,Hardcover,No,Duplex,116.58558122778904,39.868649598893654,101111865152
beijing,天通苑中苑,昌平,5750000.0,36739,First Floor ,156.51,2007,4,2,1,2,Plate,Mixed,Simplicity,No,Duplex,116.43371495589989,40.07866407586977,101112202619
beijing,芳城园一区,丰台,7700000.0,63323,Middle,121.6,1993,3,1,1,2,Plate & Tower,Steel/Concrete,Simplicity,Yes,Flat,116.44228631758443,39.875385302854944,101112458574
beijing,万象新天四区,朝阳,12900000.0,70400,First Floor ,183.24,2006,4,2,1,3,Plate,Steel/Concrete,Hardcover,No,Duplex,116.5979529607641,39.93239709370271,101111657159
beijing,叠墅,朝阳,13500000.0,64397,Middle,209.64,2007,4,2,1,3,Plate,Steel/Concrete,Hardcover,Yes,Duplex,116.54232296663385,39.924075043856924,101111654995
beijing,周庄嘉园东里B区,朝阳,3200000.0,59085,Top ,54.16,2004,1,1,1,1,Plate,Mixed,Hardcover,No,Flat,116.4804463356483,39.8721175220598,101112673673
beijing,时尚街区东区,通州,2900000.0,44377,Middle,65.35,2004,2,1,1,1,Plate & Tower,Steel/Concrete,Simplicity,Yes,Flat,116.67371622713675,39.88882045524149,101112703408
beijing,路劲世界城一期,昌平,3780000.0,43584,High,86.73,2013,2,1,1,1,Plate,Steel/Concrete,Rough,Yes,Flat,116.2976926372735,40.21306903108399,101112735211
beijing,安苑北里,朝阳,3690000.0,83296,Low,44.3,1988,1,1,1,1,Tower,Steel/Concrete,Simplicity,Yes,Flat,116.41864156910356,39.99398868112335,101112708315
beijing,核桃园北里,朝阳,6720000.0,104919,High,64.05,1986,2,1,1,1,Plate,Mixed,Hardcover,No,Flat,116.46358909377025,39.931134320811644,101112758712
beijing,小关东里10号院,朝阳,4100000.0,91132,Middle,44.99,1993,1,1,1,1,Plate,Mixed,Simplicity,No,Flat,116.42110301603144,39.9841404032627,101112754845
beijing,安慧北里秀园,朝阳,4990000.0,100423,Middle,49.69,1992,1,1,1,1,Plate,Mixed,Hardcover,No,Flat,116.42128249747233,40.00493881382989,101112698861
beijing,gogo新世代,丰台,2920000.0,62945,Middle,46.39,2005,1,1,1,1,Tower,Steel/Concrete,Hardcover,Yes,Flat,116.42934999959634,39.87269273484701,101112716489
beijing,炫特嘉园三期,朝阳,4680000.0,65574,High,71.37,2006,1,1,1,1,Plate & Tower,Steel/Concrete,Hardcover,Yes,Flat,116.51306300024065,39.93712106275075,101112731237
beijing,康静里,朝阳,2350000.0,50182,High,46.83,1995,1,1,1,1,Plate,Mixed,Simplicity,No,Flat,116.53915428377795,39.96777160480555,101112756114
beijing,安外花园,东城,5500000.0,130086,Low,42.28,1990,1,1,1,1,Plate,Mixed,Simplicity,No,Flat,116.41739202613917,39.96490552858546,101112723249
beijing,北亚花园,昌平,2280000.0,28687,Top ,79.48,2003,2,1,1,1,Plate,Mixed,Rough,No,Flat,116.42773897849476,40.135786058283564,101112696724
beijing,羊坊店路3号院,海淀,6350000.0,105168,Low,60.38,1982,2,1,1,1,Plate & Tower,Steel/Concrete,Simplicity,Yes,Flat,116.32513658924773,39.91066698911078,101112759777
beijing,亚运豪庭,朝阳,8380000.0,66939,High,125.19,2000,2,1,1,1,Tower,Steel/Concrete,Hardcover,Yes,Flat,116.42946525219328,40.00088972814068,101112725913
beijing,望京西园三区,朝阳,6380000.0,78053,High,81.74,2000,1,1,1,1,Tower,Steel/Concrete,Simplicity,Yes,Flat,116.48086503584649,40.00566806430206,101112703245
beijing,天和人家,朝阳,9900000.0,90478,Low,109.42,2004,2,1,1,1,Plate,Steel/Concrete,Simplicity,Yes,Flat,116.38093905803592,40.005376461772876,101112727534
beijing,北京城建·广悦居,房山,2480000.0,37950,Middle,65.35,2016,1,1,1,1,Tower,Steel/Concrete,Simplicity,Yes,Flat,116.19412205434784,39.74755556040609,101112778480
beijing,观音惠园,朝阳,2510000.0,50831,First Floor ,49.38,2006,1,0,1,1,Plate,Steel/Concrete,Simplicity,No,Flat,116.52779386314602,39.89606863110143,101112698435
beijing,龙华园,昌平,3850000.0,57948,Middle,66.44,1995,2,1,1,1,Plate,Mixed,Simplicity,No,Flat,116.33118101753273,40.0809530687648,101112780304
beijing,天通苑北三区,昌平,4200000.0,44230,High,94.96,2003,2,2,1,2,Plate,Mixed,Simplicity,No,Flat,116.44012625215514,40.08296368870586,101112708381
beijing,幸福一村,朝阳,4450000.0,83225,High,53.47,1984,2,1,1,1,Plate,Mixed,Simplicity,No,Flat,116.45529988984639,39.940657963396504,101112713132
beijing,永翌公馆,丰台,5390000.0,74069,Middle,72.77,2011,1,1,1,1,Tower,Steel/Concrete,Hardcover,Yes,Flat,116.3086540305979,39.892218081972985,101112707011
beijing,古城北路,石景山,2700000.0,45880,Middle,58.85,1987,2,1,1,1,Plate,Mixed,Rough,No,Flat,116.1959197433344,39.92388870834631,101112701005
beijing,天通苑北三区,昌平,4350000.0,44892,Middle,96.9,2004,2,1,1,2,Plate,Mixed,Hardcover,No,Flat,116.44012625215514,40.08296368870586,101112731659
beijing,豪柏大厦,海淀,4950000.0,55160,Low,89.74,2005,2,0,0,1,Plate & Tower,Steel/Concrete,Hardcover,Yes,Flat,116.32001804445188,39.94523705178014,101112754719
beijing,卫生部小区,海淀,9600000.0,117059,Middle,82.01,1990,3,1,1,1,Plate & Tower,Steel/Concrete,Simplicity,Yes,Flat,116.35602626149714,39.95592951575087,101112779350
beijing,槐柏树街南里,西城,6670000.0,114961,Middle,58.02,1992,2,1,1,1,Plate,Mixed,Hardcover,No,Flat,116.36101904352161,39.901360064404415,101112763997
beijing,地铁楼,石景山,2800000.0,45191,Middle,61.96,1985,2,1,1,1,Plate,Mixed,Hardcover,No,Flat,116.1934432947045,39.92647557222195,101112702300
beijing,南苑北里二区,丰台,2050000.0,36772,Low,55.75,1996,1,1,1,1,Plate,Mixed,Simplicity,No,Flat,116.40649800572801,39.81504118782795,101112757943
beijing,东亚逸品阁,通州,4120000.0,46204,High,89.17,2013,2,1,1,1,Plate & Tower,Steel/Concrete,Hardcover,Yes,Flat,116.69569416974386,39.93954401896632,101112758737
beijing,古城南里,石景山,3400000.0,55693,High,61.05,1984,2,1,1,1,Plate,Steel/Concrete,Hardcover,Yes,Flat,116.1985342615212,39.908304367764245,101112746335
beijing,古城路小区,石景山,2400000.0,42622,Middle,56.31,1986,2,1,1,1,Plate,Mixed,Simplicity,No,Flat,116.19405791533443,39.919520882462265,101112736539
beijing,星河城东区,丰台,5000000.0,73444,Middle,68.08,2006,1,1,1,1,Tower,Steel/Concrete,Hardcover,Yes,Flat,116.36999661895779,39.85039625570912,101112754731
beijing,大西洋新城G区,朝阳,7460000.0,103612,Low,72,2012,1,1,1,1,Plate & Tower,Steel/Concrete,Hardcover,Yes,Flat,116.4716009907832,39.99832007157605,101112762073
beijing,鹿鸣苑,亦庄开发区,3990000.0,75784,Middle,52.65,2000,1,1,1,1,Tower,Steel/Concrete,Simplicity,Yes,Flat,116.30329222466996,40.34081520443998,101112760059
beijing,福苑小区,大兴,2320000.0,30959,Top ,74.94,1996,2,1,1,1,Plate,Mixed,Hardcover,No,Flat,116.35777903520822,39.76055111721712,101112697599
beijing,后南仓,通州,2050000.0,44392,First Floor ,46.18,1982,1,1,1,1,Plate,Mixed,Simplicity,No,Flat,116.65802067394421,39.90801829621002,101112737023
beijing,车公庄北里,西城,8800000.0,123770,Low,71.1,1991,3,1,1,1,Tower,Mixed,Simplicity,Yes,Flat,116.35386655539006,39.94038890071067,101112767268
beijing,垡头西里,朝阳,2690000.0,41803,Top ,64.35,1998,2,1,1,1,Plate,Mixed,Simplicity,No,Flat,116.51854508927639,39.869602864473194,101112776424
beijing,绿丰家园,朝阳,3320000.0,40078,Middle,82.84,2013,2,1,1,1,Plate,Mixed,Simplicity,No,Flat,116.58431973736137,39.879121151002096,101112738107
beijing,峪园小区,门头沟,2220000.0,34912,High,63.59,1990,2,1,1,1,Plate,Mixed,Simplicity,No,Flat,116.10795856610288,39.93650815273648,101112716646
beijing,北京青年城,朝阳,6090000.0,69952,High,87.06,2003,2,2,1,1,Plate,Mixed,Hardcover,No,Flat,116.44591295658931,40.03600803548286,101112764453
beijing,暂安处,海淀,8200000.0,100086,Middle,81.93,1998,2,1,1,1,Plate,Mixed,Other,No,Flat,116.34588780585044,39.994986827619094,101112759176
beijing,翠微西里,海淀,8500000.0,141833,Low,59.93,1993,2,1,1,1,Plate & Tower,Steel/Concrete,Hardcover,Yes,Flat,116.30181738668368,39.92332727788417,101112777078
beijing,住欣家园,朝阳,2990000.0,60441,Low,49.47,2010,1,1,1,1,Tower,Steel/Concrete,Hardcover,Yes,Flat,116.61757258191588,39.92873112146793,101112696231
beijing,当代城市家园,海淀,5880000.0,102137,High,57.57,2002,1,1,1,1,Plate & Tower,Steel/Concrete,Hardcover,Yes,Flat,116.32536404020286,40.04934506858991,101112800333
beijing,柏林爱乐二期,朝阳,3100000.0,52811,Low,58.7,2007,1,1,1,1,Tower,Steel/Concrete,Other,Yes,Flat,116.59475050162104,39.928013285070215,101112765290
beijing,高梁桥斜街乙40号院,海淀,6900000.0,109524,Middle,63,1990,2,1,1,1,Plate,Mixed,Hardcover,No,Flat,116.35106222524901,39.95202725548203,101112731482
beijing,钢铁研究院,海淀,6250000.0,94841,Top ,65.9,1954,2,1,1,1,Plate,Mixed,Hardcover,No,Flat,116.3370529711598,39.961684011951185,101112777155
beijing,富力桃园C区,海淀,7200000.0,79000,High,91.14,2010,2,1,1,1,Plate & Tower,Steel/Concrete,Hardcover,Yes,Flat,116.38624804359989,40.06955205262842,101112765047
beijing,和平街东里,昌平,2380000.0,33860,Low,70.29,1993,2,1,1,1,Plate,Mixed,Hardcover,No,Flat,116.2387587653081,40.230996881699916,101112752766
beijing,石园北区,顺义,2420000.0,34288,First Floor ,70.58,1996,2,1,1,1,Plate,Mixed,Simplicity,No,Flat,116.67084398509914,40.120350089024825,101112785440
beijing,凯德锦绣,朝阳,5600000.0,92993,High,60.22,2011,1,0,1,1,Plate,Steel/Concrete,Simplicity,Yes,Flat,116.49863504595322,39.924208328075245,101112845173
beijing,天鑫家园,昌平,3690000.0,61542,First Floor ,59.96,2003,1,1,1,1,Plate,Mixed,Simplicity,No,Flat,116.38178750759008,40.08674497155083,101112760047
beijing,农展南里,朝阳,4900000.0,84135,Middle,58.24,1989,2,1,1,1,Tower,Steel/Concrete,Simplicity,Yes,Flat,116.47025254438216,39.940087267102626,101112767976
beijing,砂轮厂宿舍,海淀,4700000.0,75600,Middle,62.17,1998,2,1,1,1,Plate,Mixed,Simplicity,No,Flat,116.34982642635893,40.03835944450455,101112771814
beijing,安慧里四区,朝阳,5500000.0,81603,First Floor ,67.4,1989,3,1,1,1,Plate,Mixed,Hardcover,No,Flat,116.41929418805655,39.99693547177334,101112729375
beijing,三源里街,朝阳,4600000.0,68128,Middle,67.52,1995,2,1,1,1,Plate,Mixed,Simplicity,No,Flat,116.46170947932117,39.9589005937078,101112727845
beijing,兴隆家园,朝阳,3920000.0,66815,First Floor ,58.67,1999,1,1,1,1,Plate,Mixed,Hardcover,No,Flat,116.5307869272747,39.91644911872162,101112747132
beijing,东一时区,朝阳,3100000.0,64651,Middle,47.95,2006,1,1,1,1,Plate,Steel/Concrete,Simplicity,Yes,Flat,116.61313378489943,39.90555187361665,101112765518
beijing,芳源里,大兴,2950000.0,49580,High,59.5,2003,1,1,1,1,Plate,Steel/Concrete,Hardcover,No,Flat,116.42370621556881,39.790700501706105,101112707317
beijing,小关东里8号院,朝阳,4400000.0,79208,First Floor ,55.55,1980,2,1,1,1,Plate,Mixed,Rough,No,Flat,116.41948516780798,39.983949948073274,101112713260
beijing,新永外文化用品商城,东城,3450000.0,92494,High,37.3,2007,1,1,1,1,Plate & Tower,Steel/Concrete,Simplicity,Yes,Flat,116.40311840073836,39.871039348387285,101112844451
beijing,太月园,海淀,9900000.0,104873,Middle,94.4,1999,2,1,1,1,Tower,Steel/Concrete,Hardcover,Yes,Flat,116.35387185539255,39.979343616662206,101112637780
beijing,天桥南里,西城,7350000.0,103829,Middle,70.79,2002,2,1,1,1,Plate,Steel/Concrete,Hardcover,No,Flat,116.4026706852722,39.8887828089906,101112642857
beijing,华芳园,丰台,5000000.0,54651,Low,91.49,1999,2,2,1,1,Tower,Steel/Concrete,Simplicity,Yes,Flat,116.4510352742683,39.85435018998645,101112648250
beijing,小羊宜宾胡同,东城,7760000.0,95204,Top ,81.51,1990,3,1,1,1,Plate,Mixed,Hardcover,No,Flat,116.43715331006987,39.91880170362438,101112655487
beijing,林调社区,东城,11300000.0,145958,Middle,77.42,1985,3,1,1,1,Plate,Mixed,Simplicity,Yes,Flat,116.4328481809133,39.96326509942301,101112518793
beijing,燕尚园,海淀,9100000.0,90144,Middle,100.95,2006,2,2,1,2,Plate,Steel/Concrete,Hardcover,Yes,Flat,116.32003421395106,40.05466141766816,101112677657
beijing,曙光里,朝阳,4200000.0,73414,Middle,57.21,1991,2,1,1,1,Plate,Mixed,Hardcover,No,Flat,116.45855301342023,39.97149705326099,101112613779
beijing,望京花园东区,朝阳,8880000.0,74610,Middle,119.02,2002,3,2,1,2,Tower,Steel/Concrete,Hardcover,Yes,Flat,116.48164485485971,40.01360848297158,101112557139
beijing,松榆西里,朝阳,5650000.0,66113,High,85.46,1998,2,1,1,1,Plate,Mixed,Hardcover,No,Flat,116.47203298590294,39.88113008384472,101112705038
beijing,首地浣溪谷,大兴,2450000.0,29558,First Floor ,82.89,2014,2,1,1,1,Plate,Steel/Concrete,Hardcover,Yes,Flat,116.40897355605242,39.71206641702832,101112747980
beijing,后现代城B区,朝阳,3250000.0,70059,High,46.39,2004,1,0,1,1,Plate & Tower,Mixed,Hardcover,Yes,Flat,116.49107194237307,39.90572255432638,101112819568
beijing,御景山,石景山,5100000.0,52089,Middle,97.91,2003,2,1,1,1,Plate & Tower,Steel/Concrete,Simplicity,Yes,Flat,116.19926898559781,39.9291790823931,101112806664
beijing,茂华景公阁,石景山,4680000.0,77703,Middle,60.23,2008,1,1,1,1,Plate,Steel/Concrete,Hardcover,Yes,Flat,116.20927440219849,39.92381186382019,101112809366
beijing,北京花园,朝阳,19800000.0,97557,Top ,202.96,2006,4,2,1,2,Plate,Steel/Concrete,Hardcover,Yes,Flat,116.48139323948637,39.961795101278675,101112726566
beijing,中建国际港,大兴,4800000.0,55428,High,86.6,2015,2,1,1,1,Plate,Steel/Concrete,Hardcover,Yes,Flat,116.33690277447853,39.75987317580488,101112700141
beijing,建功北里,西城,8200000.0,104260,Middle,78.65,1998,3,1,1,1,Plate,Steel/Concrete,Simplicity,Yes,Flat,116.35883319043603,39.88458467119589,101112745010
beijing,中海馥园,海淀,24000000.0,119469,Low,200.89,2003,4,2,1,2,Plate & Tower,Steel/Concrete,Hardcover,Yes,Flat,116.327428705587,39.934736332443386,101112714643
beijing,华业玫瑰郡,朝阳,7820000.0,86133,Middle,90.79,2008,2,1,1,1,Plate,Steel/Concrete,Hardcover,Yes,Flat,116.50752827050201,39.936850672125594,101112714889
beijing,郭庄北里,东城,6700000.0,85394,Middle,78.46,1990,3,1,1,1,Plate,Mixed,Simplicity,No,Flat,116.41754904994231,39.875908160905134,101112751684
beijing,蒲安北里,丰台,3550000.0,62150,High,57.12,1990,2,1,1,1,Tower,Steel/Concrete,Hardcover,Yes,Flat,116.42688612724356,39.87253830695766,101112752849
beijing,北辰福第二号院,朝阳,4880000.0,58255,High,83.77,2008,2,1,1,1,Plate,Steel/Concrete,Hardcover,Yes,Flat,116.60835497924744,39.936064043659215,101112698245
beijing,金海国际南区,朝阳,6400000.0,59419,First Floor ,107.71,2005,3,1,1,1,Plate,Steel/Concrete,Hardcover,Yes,Flat,116.4993756988462,39.900356457692645,101112733138
beijing,芳源里,大兴,2990000.0,50955,Top ,58.68,2004,1,1,1,1,Plate,Steel/Concrete,Simplicity,No,Flat,116.42370621556881,39.790700501706105,101112789689
beijing,天赐良园一期,通州,3750000.0,50676,Low,74,2000,2,1,1,1,Plate,Mixed,Simplicity,No,Flat,116.64359667220104,39.93248554709329,101112705315
beijing,鸿博家园六区,朝阳,4300000.0,48056,First Floor ,89.48,2008,2,1,1,1,Plate,Mixed,Simplicity,No,Flat,116.48240329420179,39.83242440939187,101112703607
beijing,丽景长安二期,门头沟,7100000.0,45742,High,155.22,2013,4,2,1,2,Plate & Tower,Steel/Concrete,Hardcover,Yes,Flat,116.11171905262874,39.91115270305327,101112742910
beijing,建材城西二里,海淀,4420000.0,74726,High,59.15,1996,2,1,1,1,Plate,Mixed,Simplicity,No,Flat,116.36123122328306,40.0694359635764,101112777573
beijing,慧时欣园一期,丰台,5080000.0,55392,Middle,91.71,2001,2,2,1,1,Tower,Steel/Concrete,Hardcover,Yes,Flat,116.42087601422907,39.85445868539312,101112754510
beijing,保利芳园,昌平,2600000.0,51425,Low,50.56,NaN,2,1,1,1,Plate & Tower,Steel/Concrete,Simplicity,Yes,Flat,116.27301807135598,40.12563457752635,101112816771
beijing,麓秀佳园,密云,1250000.0,11206,Top ,111.55,2006,3,2,1,2,Plate,Mixed,Rough,Unknown,Flat,116.85582089978058,40.481617344716,101112720282
beijing,瑞康家园,大兴,4850000.0,42266,Middle,114.75,2005,3,2,1,1,Plate,Steel/Concrete,Simplicity,Yes,Flat,116.34881241909927,39.74485377966035,101112714825
beijing,四海公寓,通州,2990000.0,28517,High,104.85,1994,3,2,1,1,Plate,Mixed,Hardcover,No,Flat,116.30228414622665,40.00164085392839,101112707226
beijing,龙博苑二区,昌平,4050000.0,68459,Middle,59.16,2004,1,1,1,1,Plate,Mixed,Hardcover,No,Flat,116.34883119368443,40.07471588117889,101112802494
beijing,灵通观,朝阳,3700000.0,83597,Middle,44.26,1976,2,1,1,1,Plate,Mixed,Hardcover,No,Flat,116.45306858879015,39.91090088768393,101112745588
beijing,飘HOME,朝阳,4250000.0,68893,Middle,61.69,2004,1,1,1,1,Tower,Steel/Concrete,Hardcover,Yes,Flat,116.4946163864238,39.97682525420871,101112807488
beijing,嘉诚花园一期,昌平,4500000.0,38807,Top ,115.96,2000,3,1,1,1,Plate,Mixed,Simplicity,No,Flat,116.41236304240266,40.04990207323682,101112764664
beijing,万年花城一期,丰台,6920000.0,74836,Middle,92.47,2005,2,1,1,1,Plate,Steel/Concrete,Simplicity,Yes,Flat,116.32811797540481,39.84962981467208,101112737447
beijing,樊家村甲6号院,丰台,4500000.0,60073,Low,74.91,2011,2,1,1,1,Plate,Steel/Concrete,Hardcover,Yes,Flat,116.31779788238397,39.85416137848679,101112695631
beijing,海特花园小区,石景山,4580000.0,52900,High,86.58,1995,2,2,1,1,Tower,Steel/Concrete,Simplicity,Yes,Flat,116.19527224472282,39.93902413970611,101112789056
beijing,美景东方,朝阳,7150000.0,63449,High,112.69,2002,3,2,1,1,Tower,Steel/Concrete,Simplicity,Yes,Flat,116.47709664423213,39.87562963601552,101112747729
beijing,樊家村甲6号院,丰台,4500000.0,56342,Low,79.87,2010,2,1,1,1,Plate,Steel/Concrete,Hardcover,Yes,Flat,116.31779788238397,39.85416137848679,101112695581
beijing,怡锦园,丰台,5880000.0,65794,Low,89.37,2003,2,2,1,1,Tower,Steel/Concrete,Hardcover,Yes,Flat,116.29675750123761,39.839945699623485,101112791666
beijing,天通苑东一区,昌平,4490000.0,42132,Middle,106.57,2001,2,1,1,1,Tower,Steel/Concrete,Simplicity,Yes,Flat,116.44154970706626,40.074520504731524,101112832150
beijing,永乐西区,石景山,2680000.0,44342,Top ,60.44,1986,2,1,1,1,Plate,Mixed,Simplicity,No,Flat,116.23546773324173,39.906995831348915,101112759720
beijing,曙光里,朝阳,4000000.0,70213,Middle,56.97,1986,2,1,1,1,Plate,Mixed,Simplicity,No,Flat,116.45855301342023,39.97149705326099,101112715713
beijing,鑫兆雅园北区,丰台,5100000.0,74118,First Floor ,68.81,2005,2,1,1,1,Plate,Steel/Concrete,Simplicity,No,Flat,116.43314300478168,39.85059809505684,101112696381
beijing,西坝河北里,朝阳,3990000.0,88451,First Floor ,45.11,1992,2,1,1,1,Tower,Steel/Concrete,Hardcover,Yes,Flat,116.44486562219522,39.97589166914689,101112694250
beijing,融科香雪兰溪,通州,3000000.0,33701,High,89.02,2010,3,1,1,1,Plate,Steel/Concrete,Simplicity,Yes,Flat,116.54391880637232,39.749493966812956,101112751563
beijing,康家园,朝阳,5100000.0,59406,Low,85.85,1997,3,1,1,1,Tower,Steel/Concrete,Hardcover,Yes,Flat,116.52365366288107,39.91796941944788,101112731694
beijing,育新花园,海淀,8400000.0,96331,Middle,87.2,1995,3,2,1,1,Plate,Mixed,Hardcover,No,Flat,116.35182201204934,40.06274904947312,101112715971
beijing,核二院,海淀,7700000.0,130731,Middle,58.9,1988,2,1,1,1,Plate,Mixed,Other,No,Flat,116.3161624273725,39.93219549699885,101112709148
beijing,花市枣苑三期,东城,15800000.0,120953,High,130.63,2005,3,1,1,2,Tower,Steel/Concrete,Hardcover,Yes,Flat,116.4358789738734,39.9019660959187,101112728652
beijing,永定路30号院,海淀,4350000.0,81767,Top ,53.2,1986,2,1,1,1,Plate,Mixed,Hardcover,No,Flat,116.27164339443407,39.925894036156436,101112725612
beijing,阳光丽景,西城,26800000.0,179085,High,149.65,2003,3,2,1,2,Plate & Tower,Steel/Concrete,Hardcover,Yes,Flat,116.39355629790687,39.97113176127789,101112706349
beijing,南露园,西城,8560000.0,124419,High,68.8,1994,2,1,1,1,Plate,Mixed,Hardcover,No,Flat,116.3479641492062,39.93075567109713,101112808670
beijing,澳林春天三期,朝阳,11000000.0,93681,First Floor ,117.42,2002,2,2,1,2,Plate,Mixed,Other,No,Flat,116.37877315362081,40.018284249760505,101112725017
beijing,机械研究院东区,海淀,8160000.0,118347,Middle,68.95,1982,3,1,1,1,Plate,Mixed,Simplicity,No,Flat,116.33374352383049,39.9409517114179,101112710641
beijing,CBD总部公寓二期,朝阳,7290000.0,83334,Middle,87.48,2005,1,1,1,1,Plate,Steel/Concrete,Hardcover,Yes,Flat,116.46139902493692,39.905667067576005,101112797088
beijing,北洼路25号院,海淀,11800000.0,100170,Middle,117.8,1997,3,1,1,1,Plate,Mixed,Hardcover,No,Flat,116.3079330505956,39.939664687366054,101112731744
beijing,拂林园,朝阳,8900000.0,66632,Low,133.57,2004,2,1,1,1,Tower,Steel/Concrete,Hardcover,Yes,Flat,116.42285255584267,40.0347209509003,101112825684
beijing,奥林匹克花园四期,朝阳,7580000.0,68344,Middle,110.91,2009,2,2,1,2,Plate,Steel/Concrete,Hardcover,Yes,Flat,116.54858801875208,39.96581009448197,101112760502
beijing,嘉铭桐城A区,朝阳,15500000.0,101420,Middle,152.83,2001,3,2,1,2,Plate,Steel/Concrete,Hardcover,Yes,Flat,116.43559232458519,40.00834299778978,101112731111
beijing,天之骄子,朝阳,9500000.0,86028,Middle,110.43,2006,2,1,1,2,Plate,Steel/Concrete,Hardcover,Yes,Flat,116.47206298930698,39.90150314893908,101112712165
beijing,牡丹园东里,海淀,8650000.0,117209,High,73.8,1996,2,1,1,1,Plate,Steel/Concrete,Hardcover,Yes,Flat,116.38086494783134,39.983892590273506,101112801819
beijing,蝶翠华庭,西城,10960000.0,117926,Low,92.94,2004,2,2,1,1,Tower,Steel/Concrete,Simplicity,Yes,Flat,116.33808862758225,39.90091088217732,101112726965
beijing,燕莎后,朝阳,10600000.0,76458,Low,138.64,2006,3,2,1,2,Plate,Steel/Concrete,Hardcover,Yes,Flat,116.50655828021233,39.96501834076332,101112748023
beijing,远洋沁山水,石景山,9460000.0,108214,Middle,87.42,2008,3,1,1,1,Plate & Tower,Steel/Concrete,Hardcover,Yes,Flat,116.25716639266581,39.908432563404965,101112733315
beijing,明日嘉园,丰台,6500000.0,70722,High,91.91,2003,2,1,1,1,Tower,Steel/Concrete,Simplicity,Yes,Flat,116.37313350179862,39.85143923592131,101112795508
beijing,东恒时代一期,朝阳,7250000.0,73875,Middle,98.14,2003,2,1,1,1,Tower,Steel/Concrete,Hardcover,Yes,Flat,116.50111445899131,39.916295066877204,101112722035
beijing,金色漫香苑,昌平,4200000.0,49106,High,85.53,2013,2,1,1,1,Plate,Steel/Concrete,Simplicity,Yes,Flat,116.43064400868346,40.1358820376031,101112791854
beijing,万润家园,昌平,5750000.0,57311,Middle,100.33,2003,3,1,1,1,Plate,Mixed,Hardcover,Yes,Flat,116.33257482836201,40.07200747570814,101112757908
beijing,北京新天地三期,朝阳,4280000.0,63436,Low,67.47,2008,2,1,1,1,Plate & Tower,Steel/Concrete,Hardcover,Yes,Flat,116.61284381188081,39.91996025776528,101112757316
beijing,团结湖北三条,朝阳,4850000.0,75078,Middle,64.6,1979,3,1,1,1,Plate,Steel/Concrete,Hardcover,No,Flat,116.47498050594228,39.936761463729134,101112712001
beijing,太平桥小区,丰台,4100000.0,69199,Low,59.25,1987,2,1,1,1,Plate,Mixed,Hardcover,No,Flat,116.32607199477528,39.89345687459736,101112794436
beijing,紫金庄园,海淀,9500000.0,100317,High,94.7,1997,2,1,1,1,Tower,Steel/Concrete,Hardcover,Yes,Flat,116.31527121847606,39.97258096010411,101112735737
beijing,金荣园,大兴,2350000.0,37155,First Floor ,63.25,1998,2,1,1,1,Plate,Mixed,Hardcover,No,Flat,116.3856689060376,39.77315101932884,101112756356
beijing,青年路小区,朝阳,3060000.0,59615,Middle,51.33,1990,2,1,1,1,Plate,Mixed,Simplicity,No,Flat,116.5293671554162,39.93147389346306,101112721188
beijing,本家润园三期,东城,7300000.0,105400,Middle,69.26,2005,2,1,1,1,Tower,Steel/Concrete,Hardcover,Yes,Flat,116.44281901275184,39.90066906149609,101112734747
beijing,苹果派,朝阳,6990000.0,62278,Middle,112.24,2007,3,1,1,2,Plate,Steel/Concrete,Simplicity,Yes,Flat,116.58476897994692,39.93558507754611,101112704087
beijing,牡丹园东里,海淀,8200000.0,108898,High,75.3,1996,2,1,1,1,Plate,Steel/Concrete,Simplicity,Yes,Flat,116.38086494783134,39.983892590273506,101112798793
beijing,韩庄子二里,丰台,3200000.0,56309,Middle,56.83,1992,2,1,1,1,Plate,Mixed,Hardcover,No,Flat,116.29589494828694,39.84531635436609,101112731389
beijing,梵谷水郡,朝阳,4900000.0,55866,First Floor ,87.71,2009,2,1,1,1,Tower,Steel/Concrete,Simplicity,Yes,Flat,116.51334839190116,39.96659409713264,101112814218
beijing,天畅园,朝阳,5180000.0,58844,Low,88.03,2008,2,1,1,1,Tower,Steel/Concrete,Hardcover,Yes,Flat,116.42242029123128,40.04124595956638,101112794155
beijing,龙兴园中区,昌平,4600000.0,53266,Low,86.36,1997,2,2,1,1,Plate,Mixed,Hardcover,No,Flat,116.32617098804248,40.06817104931053,101112713347
beijing,滨河西里北区,大兴,3850000.0,40599,Middle,94.83,1994,3,1,1,1,Plate,Mixed,Hardcover,No,Flat,116.3456050192759,39.76020805668467,101112739505
beijing,怡海花园恒丰园,丰台,4600000.0,73319,High,62.74,2006,1,1,1,1,Tower,Steel/Concrete,Hardcover,Yes,Flat,116.3094309750335,39.8426910846983,101112804485
beijing,望京新城,朝阳,7680000.0,71164,Middle,107.92,1998,2,2,1,1,Tower,Steel/Concrete,Hardcover,Yes,Flat,116.4791990384477,40.00422710311743,101112726205
beijing,天通苑北一区,昌平,4350000.0,38979,First Floor ,111.6,2004,2,2,1,1,Plate,Steel/Concrete,Simplicity,Yes,Flat,116.42363345282249,40.08074377094799,101112787615
beijing,北京新天地五期,朝阳,4250000.0,61020,Low,69.65,2011,1,1,1,1,Plate & Tower,Steel/Concrete,Hardcover,Yes,Flat,116.61232602858486,39.92220205130386,101112757762
beijing,十字坡东里,东城,6280000.0,106423,Top ,59.01,1986,3,1,1,1,Plate,Brick/Concrete,Hardcover,No,Flat,116.44615630755196,39.94556991599285,101112755965
beijing,北纬40度一期,朝阳,9600000.0,94909,Middle,101.15,2008,2,1,1,1,Plate & Tower,Steel/Concrete,Hardcover,Yes,Flat,116.470218768095,40.026800481134494,101112712132
beijing,加州水郡四期,房山,2300000.0,35385,Middle,65,2011,1,1,1,1,Tower,Steel/Concrete,Simplicity,Yes,Flat,116.17806421454313,39.77319982073812,101112800683
beijing,方恒东景,通州,3500000.0,41347,Middle,84.65,2012,2,1,1,1,Plate,Steel/Concrete,Hardcover,Yes,Flat,116.69604549702883,39.87879536690677,101112721559
beijing,德胜门西大街甲5号,海淀,9800000.0,108288,Middle,90.5,1998,3,1,1,1,Tower,Steel/Concrete,Hardcover,Yes,Flat,116.37229160987465,39.95326253805836,101112707486
beijing,世桥国贸,朝阳,10600000.0,89823,Middle,118.01,2003,2,1,1,1,Plate & Tower,Steel/Concrete,Hardcover,Yes,Flat,116.46984462385008,39.905016859113125,101112718468
beijing,农光东里,朝阳,3200000.0,64090,Low,49.93,1994,2,1,1,1,Plate & Tower,Steel/Concrete,Hardcover,Yes,Flat,116.47606503018449,39.88784808188444,101112774979
beijing,东南小区,海淀,9600000.0,148149,Middle,64.8,1984,2,1,1,1,Tower,Steel/Concrete,Simplicity,Yes,Flat,116.39457398821911,39.900740051004156,101112808583
beijing,三环新城7号院,丰台,2550000.0,60499,Middle,42.15,2004,1,1,1,1,Plate & Tower,Steel/Concrete,Simplicity,Yes,Flat,116.31638341052798,39.85749607118538,101112847477
beijing,和义东里一区,丰台,2800000.0,48135,Middle,58.17,1994,2,1,1,1,Plate,Mixed,Hardcover,No,Flat,116.41433302638603,39.821155429719006,101112788515
beijing,四平园,西城,8400000.0,116732,Middle,71.96,1996,2,1,1,1,Plate,Mixed,Simplicity,No,Flat,116.38636599111335,39.88821845874299,101112824852
beijing,安慧东里,朝阳,3500000.0,68240,Basement,51.29,1992,2,1,1,1,Plate,Brick/Concrete,Hardcover,No,Flat,116.42901430282726,39.99649030725247,101112849563
